{
"type": "FeatureCollection",
"crs": { "type": "name", "properties": { "name": "urn:ogc:def:crs:OGC:1.3:CRS84" } },
                                                                                
"features": [
{ "type": "Feature", "properties": { "ADDRESS": "1 FLORIDA AVENUE NE", "ZIP_CODE": "20002", "FULL_SERVI": 0, "ADDRID": 76011, "NAME": "Exxon of Florida Avenue", "PHONE": "2026351659", "GIS_ID": "Gas_1", "X": 399271.99, "Y": 138041.65 }, "geometry": { "type": "Point", "coordinates": [ -77.008596642314885, 38.910329122924892 ] } },
{ "type": "Feature", "properties": { "ADDRESS": "1020 MICHIGAN AVENUE NE", "ZIP_CODE": "20017", "FULL_SERVI": 0, "ADDRID": 75356, "NAME": "Brookland Exxon", "PHONE": "2025269430", "GIS_ID": "Gas_4", "X": 400615.35, "Y": 140897.96 }, "geometry": { "type": "Point", "coordinates": [ -76.99289895564641, 38.935903935051385 ] } },
{ "type": "Feature", "properties": { "ADDRESS": "1201 BLADENSBURG ROAD NE", "ZIP_CODE": "20002", "FULL_SERVI": 0, "ADDRID": 285912, "NAME": "Bladensburg BP", "PHONE": "2023960545", "GIS_ID": "Gas_6", "X": 401789.79, "Y": 137553.17 }, "geometry": { "type": "Point", "coordinates": [ -76.979263910015078, 38.905931661659075 ] } },
{ "type": "Feature", "properties": { "ADDRESS": "1201 PENNSYLVANIA AVENUE SE", "ZIP_CODE": "20003", "FULL_SERVI": 0, "ADDRID": 72104, "NAME": "P & A Exxon Service Center", "PHONE": "2025466146", "GIS_ID": "Gas_7", "X": 400879.47, "Y": 134866.83 }, "geometry": { "type": "Point", "coordinates": [ -76.990001431428311, 38.881780278278079 ] } },
{ "type": "Feature", "properties": { "ADDRESS": "1231 NEW YORK AVENUE NE", "ZIP_CODE": "20002", "FULL_SERVI": 0, "ADDRID": 70390, "NAME": "New York Avenue BP", "PHONE": "2028321777", "GIS_ID": "Gas_8", "X": 400990.13, "Y": 138465.79 }, "geometry": { "type": "Point", "coordinates": [ -76.988688058943922, 38.914065820715727 ] } },
{ "type": "Feature", "properties": { "ADDRESS": "1248 PENNSYLVANIA AVENUE SE", "ZIP_CODE": "20003", "FULL_SERVI": 0, "ADDRID": 69747, "NAME": "G & K Sunoco", "PHONE": "2025473124", "GIS_ID": "Gas_11", "X": 400984.74, "Y": 134913.48 }, "geometry": { "type": "Point", "coordinates": [ -76.988630671524433, 38.881880136976626 ] } },
{ "type": "Feature", "properties": { "ADDRESS": "1301 13TH STREET NW", "ZIP_CODE": "20005", "FULL_SERVI": 0, "ADDRID": 240902, "NAME": "Logan Circle BP", "PHONE": "2022653005", "GIS_ID": "Gas_12", "X": 397453.66, "Y": 137737.92 }, "geometry": { "type": "Point", "coordinates": [ -77.029376003473629, 38.907503224835466 ] } },
{ "type": "Feature", "properties": { "ADDRESS": "1317 9TH STREET NW", "ZIP_CODE": "20001", "FULL_SERVI": 0, "ADDRID": 239903, "NAME": "Amazing Inc. BP", "PHONE": "2029861300", "GIS_ID": "Gas_13", "X": 397948.96, "Y": 137768.3 }, "geometry": { "type": "Point", "coordinates": [ -77.023654972972452, 38.907813464435364 ] } },
{ "type": "Feature", "properties": { "ADDRESS": "1396 FLORIDA AVENUE NE", "ZIP_CODE": "20002", "FULL_SERVI": 0, "ADDRID": 286118, "NAME": "Casey's BP", "PHONE": "2023963690", "GIS_ID": "Gas_15", "X": 401269.14, "Y": 137028.84 }, "geometry": { "type": "Point", "coordinates": [ -76.985328114696614, 38.901066547591704 ] } },
{ "type": "Feature", "properties": { "ADDRESS": "1400 W STREET NW", "ZIP_CODE": "20009", "FULL_SERVI": 0, "ADDRID": 242884, "NAME": "Lowest Price", "PHONE": "2023283990", "GIS_ID": "Gas_16", "X": 397183.25, "Y": 139013.59 }, "geometry": { "type": "Point", "coordinates": [ -77.03247392957806, 38.919034702694496 ] } },
{ "type": "Feature", "properties": { "ADDRESS": "1442 U STREET NW", "ZIP_CODE": "20009", "FULL_SERVI": 0, "ADDRID": 279190, "NAME": "Capitol Hill Gas Station", "PHONE": "2022652444", "GIS_ID": "Gas_17", "X": 397062.21, "Y": 138763.27 }, "geometry": { "type": "Point", "coordinates": [ -77.03411149078994, 38.916742341383667 ] } },
{ "type": "Feature", "properties": { "ADDRESS": "1535 KENILWORTH AVENUE NE", "ZIP_CODE": "20019", "FULL_SERVI": 0, "ADDRID": 60958, "NAME": "Kenilworth BP", "PHONE": "2023993418", "GIS_ID": "Gas_18", "X": 405626.31, "Y": 138072.93 }, "geometry": { "type": "Point", "coordinates": [ -76.935067580885814, 38.910416893341662 ] } },
{ "type": "Feature", "properties": { "ADDRESS": "1576 WISCONSIN AVENUE NW", "ZIP_CODE": "20007", "FULL_SERVI": 0, "ADDRID": 272739, "NAME": "Lowest Price", "PHONE": "2023338245", "GIS_ID": "Gas_19", "X": 394333.02, "Y": 138075.11 }, "geometry": { "type": "Point", "coordinates": [ -77.065159317635903, 38.910583178159015 ] } },
{ "type": "Feature", "properties": { "ADDRESS": "1601 WISCONSIN AVENUE NW", "ZIP_CODE": "20007", "FULL_SERVI": 1, "ADDRID": 272965, "NAME": "Georgetown Exxon", "PHONE": "2023330538", "GIS_ID": "Gas_20", "X": 394386.76, "Y": 138099.29 }, "geometry": { "type": "Point", "coordinates": [ -77.064870318922473, 38.910606760661487 ] } },
{ "type": "Feature", "properties": { "ADDRESS": "1636 BLADENSBURG ROAD NE", "ZIP_CODE": "20002", "FULL_SERVI": 0, "ADDRID": 58756, "NAME": "Yellow Cab Company of DC", "PHONE": "2025467900", "GIS_ID": "Gas_21", "X": 402016.57, "Y": 138293.6 }, "geometry": { "type": "Point", "coordinates": [ -76.976985693036511, 38.912538846216428 ] } },
{ "type": "Feature", "properties": { "ADDRESS": "1739 NEW JERSEY AVENUE NW", "ZIP_CODE": "20001", "FULL_SERVI": 0, "ADDRID": 237208, "NAME": "New Jersy Avenue Hess", "PHONE": "2026676165", "GIS_ID": "Gas_22", "X": 398499.6, "Y": 138421.89 }, "geometry": { "type": "Point", "coordinates": [ -77.017346755071117, 38.913680073375765 ] } },
{ "type": "Feature", "properties": { "ADDRESS": "1765 NEW YORK AVENUE NE", "ZIP_CODE": "20002", "FULL_SERVI": 0, "ADDRID": 286472, "NAME": "Parkway Shell", "PHONE": "2022693048", "GIS_ID": "Gas_23", "X": 401805.94, "Y": 138780.45 }, "geometry": { "type": "Point", "coordinates": [ -76.979143725843926, 38.916868385614066 ] } },
{ "type": "Feature", "properties": { "ADDRESS": "1801 NEW YORK AVENUE NE", "ZIP_CODE": "20002", "FULL_SERVI": 0, "ADDRID": 289241, "NAME": "New York Avenue Hess", "PHONE": "2028320698", "GIS_ID": "Gas_24", "X": 401951.12, "Y": 138763.81 }, "geometry": { "type": "Point", "coordinates": [ -76.97731584013512, 38.916954382601801 ] } },
{ "type": "Feature", "properties": { "ADDRESS": "1827 ADAMS MILL ROAD NW", "ZIP_CODE": "20009", "FULL_SERVI": 1, "ADDRID": 300759, "NAME": "Rock Creek Exxon", "PHONE": "2022340422", "GIS_ID": "Gas_25", "X": 396258.37, "Y": 139511.69 }, "geometry": { "type": "Point", "coordinates": [ -77.042965675732376, 38.923420050191623 ] } },
{ "type": "Feature", "properties": { "ADDRESS": "1830 RHODE ISLAND AVENUE NE", "ZIP_CODE": "20018", "FULL_SERVI": 0, "ADDRID": 286501, "NAME": "Rhode Island Shell", "PHONE": "2025266314", "GIS_ID": "Gas_26", "X": 401940.83, "Y": 140097.14 }, "geometry": { "type": "Point", "coordinates": [ -76.977255629303414, 38.928824685690692 ] } },
{ "type": "Feature", "properties": { "ADDRESS": "1905 9TH STREET NE", "ZIP_CODE": "20018", "FULL_SERVI": 0, "ADDRID": 54411, "NAME": "Freedom Citgo", "PHONE": "2028328930", "GIS_ID": "Gas_27", "X": 400570.42, "Y": 138804.19 }, "geometry": { "type": "Point", "coordinates": [ -76.993249425970959, 38.916674770411397 ] } },
{ "type": "Feature", "properties": { "ADDRESS": "1925 BLADENSBURG ROAD NE", "ZIP_CODE": "20002", "FULL_SERVI": 0, "ADDRID": 286540, "NAME": "Bladensburg Exxon", "PHONE": "2025266986", "GIS_ID": "Gas_28", "X": 402409.45, "Y": 138788.91 }, "geometry": { "type": "Point", "coordinates": [ -76.972248042109584, 38.916980691690753 ] } },
{ "type": "Feature", "properties": { "ADDRESS": "1950 BENNING ROAD NE", "ZIP_CODE": "20002", "FULL_SERVI": 0, "ADDRID": 290018, "NAME": "Benning Road BP", "PHONE": "2023998880", "GIS_ID": "Gas_29", "X": 402218.06, "Y": 136775.31 }, "geometry": { "type": "Point", "coordinates": [ -76.974417447400612, 38.89882518082338 ] } },
{ "type": "Feature", "properties": { "ADDRESS": "200 MASSACHUSETTS AVENUE NE", "ZIP_CODE": "20001", "FULL_SERVI": 1, "ADDRID": 286572, "NAME": "Congressional Exxon of Capitol Hill", "PHONE": "2025439456", "GIS_ID": "Gas_30", "X": 399732.41, "Y": 136402.39 }, "geometry": { "type": "Point", "coordinates": [ -77.003252659228252, 38.895397165201366 ] } },
{ "type": "Feature", "properties": { "ADDRESS": "2150 M STREET NW", "ZIP_CODE": "20037", "FULL_SERVI": 0, "ADDRID": 279561, "NAME": "KM Exxon #5", "PHONE": "2022939389", "GIS_ID": "Gas_31", "X": 395796.25, "Y": 137458.42 }, "geometry": { "type": "Point", "coordinates": [ -77.048463222519729, 38.904972189962088 ] } },
{ "type": "Feature", "properties": { "ADDRESS": "22 FLORIDA AVENUE NW", "ZIP_CODE": "20001", "FULL_SERVI": 0, "ADDRID": 301035, "NAME": "Lowest Price", "PHONE": "2023322511", "GIS_ID": "Gas_32", "X": 399064.22, "Y": 138163.47 }, "geometry": { "type": "Point", "coordinates": [ -77.010679289247065, 38.91129622342708 ] } },
{ "type": "Feature", "properties": { "ADDRESS": "2200 P STREET NW", "ZIP_CODE": "20037", "FULL_SERVI": 1, "ADDRID": 225947, "NAME": "Embassy Mobile", "PHONE": "2026598560", "GIS_ID": "Gas_33", "X": 395736.26, "Y": 137939.57 }, "geometry": { "type": "Point", "coordinates": [ -77.049156637902385, 38.9093440536221 ] } },
{ "type": "Feature", "properties": { "ADDRESS": "2210 BLADENSBURG ROAD NE", "ZIP_CODE": "20018", "FULL_SERVI": 0, "ADDRID": 50359, "NAME": "Kazco", "PHONE": "2026351373", "GIS_ID": "Gas_35", "X": 402542.49, "Y": 139128.18 }, "geometry": { "type": "Point", "coordinates": [ -76.970798154765617, 38.919934430567118 ] } },
{ "type": "Feature", "properties": { "ADDRESS": "2230 NEW YORK AVENUE NE", "ZIP_CODE": "20002", "FULL_SERVI": 0, "ADDRID": 286747, "NAME": "New York Avenue Exxon", "PHONE": "3015264534", "GIS_ID": "Gas_36", "X": 402327.58, "Y": 138872.09 }, "geometry": { "type": "Point", "coordinates": [ -76.972883610602722, 38.917661798626966 ] } },
{ "type": "Feature", "properties": { "ADDRESS": "2300 PENNSYLVANIA AVENUE SE", "ZIP_CODE": "20020", "FULL_SERVI": 0, "ADDRID": 48967, "NAME": "Capitol Hill Citgo", "PHONE": "2025817080", "GIS_ID": "Gas_37", "X": 402440.86, "Y": 134080.79 }, "geometry": { "type": "Point", "coordinates": [ -76.972014728732518, 38.874509453645473 ] } },
{ "type": "Feature", "properties": { "ADDRESS": "2300 SOUTH DAKOTA AVENUE NE", "ZIP_CODE": "20018", "FULL_SERVI": 0, "ADDRID": 286779, "NAME": "South Dakota Shell", "PHONE": "2028328913", "GIS_ID": "Gas_38", "X": 403508.36, "Y": 139221.18 }, "geometry": { "type": "Point", "coordinates": [ -76.95960640537848, 38.920895952638283 ] } },
{ "type": "Feature", "properties": { "ADDRESS": "2305 PENNSYLVANIA AVENUE SE", "ZIP_CODE": "20020", "FULL_SERVI": 0, "ADDRID": 300688, "NAME": "Signature Pennsylvania Avenue Sunoco", "PHONE": "2025824710", "GIS_ID": "Gas_39", "X": 402315.89, "Y": 134031.68 }, "geometry": { "type": "Point", "coordinates": [ -76.973132381654011, 38.874257379041502 ] } },
{ "type": "Feature", "properties": { "ADDRESS": "2350 SOUTH DAKOTA AVENUE NE", "ZIP_CODE": "20018", "FULL_SERVI": 0, "ADDRID": 48031, "NAME": "South Dakota Shell", "PHONE": "7035363388", "GIS_ID": "Gas_40", "X": 403421.32, "Y": 139305.56 }, "geometry": { "type": "Point", "coordinates": [ -76.960554770503734, 38.921609988129227 ] } },
{ "type": "Feature", "properties": { "ADDRESS": "2420 NEW YORK AVENUE NE", "ZIP_CODE": "20002", "FULL_SERVI": 0, "ADDRID": 287042, "NAME": "New York Avenue Citgo", "PHONE": "2025263677", "GIS_ID": "Gas_41", "X": 402499.1, "Y": 138877.37 }, "geometry": { "type": "Point", "coordinates": [ -76.971238861424368, 38.917760278556131 ] } },
{ "type": "Feature", "properties": { "ADDRESS": "2500 PENNSYLVANIA AVENUE SE", "ZIP_CODE": null, "FULL_SERVI": 0, "ADDRID": 46707, "NAME": "Pennsylvania Avenue BP", "PHONE": "2025845456", "GIS_ID": "Gas_42", "X": 402601.89, "Y": 133973.12 }, "geometry": { "type": "Point", "coordinates": [ -76.970006043180447, 38.873588269519324 ] } },
{ "type": "Feature", "properties": { "ADDRESS": "2501 PENNSYLVANIA AVENUE SE", "ZIP_CODE": "20020", "FULL_SERVI": 0, "ADDRID": 46734, "NAME": "Shell Food Mart", "PHONE": "2025822825", "GIS_ID": "Gas_43", "X": 402552.27, "Y": 133906.58 }, "geometry": { "type": "Point", "coordinates": [ -76.970612513918297, 38.873082025458849 ] } },
{ "type": "Feature", "properties": { "ADDRESS": "2600 14TH STREET NW", "ZIP_CODE": "20009", "FULL_SERVI": 0, "ADDRID": 234256, "NAME": "14th Street BP", "PHONE": "2022324976", "GIS_ID": "Gas_44", "X": 397171.45, "Y": 139552.36 }, "geometry": { "type": "Point", "coordinates": [ -77.032425192464359, 38.923826031974073 ] } },
{ "type": "Feature", "properties": { "ADDRESS": "264 MISSOURI AVENUE NW", "ZIP_CODE": "20011", "FULL_SERVI": 1, "ADDRID": 243503, "NAME": "Miller Brothers Exxon", "PHONE": "2022912914", "GIS_ID": "Gas_45", "X": 398623.02, "Y": 143204.19 }, "geometry": { "type": "Point", "coordinates": [ -77.015748734290995, 38.956711570037754 ] } },
{ "type": "Feature", "properties": { "ADDRESS": "2643 VIRGINIA AVENUE NW", "ZIP_CODE": "20037", "FULL_SERVI": 0, "ADDRID": 279605, "NAME": "Watergate Chevron", "PHONE": "2029656277", "GIS_ID": "Gas_46", "X": 395167.32, "Y": 136961.87 }, "geometry": { "type": "Point", "coordinates": [ -77.055863556006599, 38.900518066736794 ] } },
{ "type": "Feature", "properties": { "ADDRESS": "2651 BENNING ROAD NE", "ZIP_CODE": "20002", "FULL_SERVI": 0, "ADDRID": 300608, "NAME": "Stadium Exxon II Inc.", "PHONE": "2023966125", "GIS_ID": "Gas_47", "X": 402588.33, "Y": 136617.67 }, "geometry": { "type": "Point", "coordinates": [ -76.970030546714952, 38.897539800423637 ] } },
{ "type": "Feature", "properties": { "ADDRESS": "2708 VIRGINIA AVENUE NW", "ZIP_CODE": "20037", "FULL_SERVI": 0, "ADDRID": 279611, "NAME": "Watergate Exxon", "PHONE": "2023387739", "GIS_ID": "Gas_48", "X": 395085.45, "Y": 136949.97 }, "geometry": { "type": "Point", "coordinates": [ -77.056676431907789, 38.900412460945397 ] } },
{ "type": "Feature", "properties": { "ADDRESS": "2713 GOOD HOPE ROAD SE", "ZIP_CODE": "20020", "FULL_SERVI": 0, "ADDRID": 287193, "NAME": "Good Hope Auto Center", "PHONE": "2025813753", "GIS_ID": "Gas_49", "X": 402725.07, "Y": 132479.58 }, "geometry": { "type": "Point", "coordinates": [ -76.968496892618617, 38.860092750035037 ] } },
{ "type": "Feature", "properties": { "ADDRESS": "2715 PENNSYLVANIA AVENUE NW", "ZIP_CODE": "20007", "FULL_SERVI": 1, "ADDRID": 273871, "NAME": "Georgetown Getty", "PHONE": "2023380400", "GIS_ID": "Gas_50", "X": 395101.04, "Y": 137462.21 }, "geometry": { "type": "Point", "coordinates": [ -77.056710617760132, 38.905058503846718 ] } },
{ "type": "Feature", "properties": { "ADDRESS": "2801 ALABAMA AVENUE SE", "ZIP_CODE": "20020", "FULL_SERVI": 0, "ADDRID": 278264, "NAME": "Hillcrest BP", "PHONE": "2025831100", "GIS_ID": "Gas_51", "X": 402801.49, "Y": 132432.38 }, "geometry": { "type": "Point", "coordinates": [ -76.96782199297995, 38.859764362166317 ] } },
{ "type": "Feature", "properties": { "ADDRESS": "2830 SHERMAN AVENUE NW", "ZIP_CODE": "20001", "FULL_SERVI": 0, "ADDRID": 284520, "NAME": "Sherman Apex Pertroleum", "PHONE": "2024626972", "GIS_ID": "Gas_52", "X": 397718.52, "Y": 139858.53 }, "geometry": { "type": "Point", "coordinates": [ -77.026348078826047, 38.926596815959108 ] } },
{ "type": "Feature", "properties": { "ADDRESS": "3011 MARTIN LUTHER KING JR AVENUE SE", "ZIP_CODE": "20032", "FULL_SERVI": 0, "ADDRID": 301041, "NAME": "Martin Luther King Chevron", "PHONE": "2025263600", "GIS_ID": "Gas_53", "X": 400144.92, "Y": 130737.57 }, "geometry": { "type": "Point", "coordinates": [ -76.998237270632799, 38.844463402001466 ] } },
{ "type": "Feature", "properties": { "ADDRESS": "306 RHODE ISLAND AVENUE NW", "ZIP_CODE": "20001", "FULL_SERVI": 0, "ADDRID": 230006, "NAME": "Rhode Island Avenue BP", "PHONE": "2022342973", "GIS_ID": "Gas_54", "X": 398606.63, "Y": 138466.5 }, "geometry": { "type": "Point", "coordinates": [ -77.016066098846551, 38.914063225052224 ] } },
{ "type": "Feature", "properties": { "ADDRESS": "3201 PENNSYLVANIA AVENUE SE", "ZIP_CODE": "20020", "FULL_SERVI": 0, "ADDRID": 38863, "NAME": "Hillcrest Exxon", "PHONE": "2025814550", "GIS_ID": "Gas_55", "X": 403475.48, "Y": 133436.58 }, "geometry": { "type": "Point", "coordinates": [ -76.959923000281947, 38.868722678769409 ] } },
{ "type": "Feature", "properties": { "ADDRESS": "3355 BENNING ROAD NE", "ZIP_CODE": "20019", "FULL_SERVI": 0, "ADDRID": 287842, "NAME": "Benning Road Shell", "PHONE": "2023985920", "GIS_ID": "Gas_56", "X": 403564.16, "Y": 136494.29 }, "geometry": { "type": "Point", "coordinates": [ -76.958811808497558, 38.89631210862899 ] } },
{ "type": "Feature", "properties": { "ADDRESS": "339 PENNSYLVANIA AVENUE SE", "ZIP_CODE": "20003", "FULL_SERVI": 1, "ADDRID": 278384, "NAME": "Capitol Hill Exxon", "PHONE": "2025474054", "GIS_ID": "Gas_57", "X": 399924.17, "Y": 135379.94 }, "geometry": { "type": "Point", "coordinates": [ -77.000885378374861, 38.886199513412166 ] } },
{ "type": "Feature", "properties": { "ADDRESS": "3426 18TH STREET NE", "ZIP_CODE": "20018", "FULL_SERVI": 0, "ADDRID": 34566, "NAME": "K & J Auto Care Inc.", "PHONE": "2022692495", "GIS_ID": "Gas_58", "X": 401736.33, "Y": 140539.34 }, "geometry": { "type": "Point", "coordinates": [ -76.979970007638045, 38.932842314461581 ] } },
{ "type": "Feature", "properties": { "ADDRESS": "3426 GEORGIA AVENUE NW", "ZIP_CODE": "20010", "FULL_SERVI": 0, "ADDRID": 242835, "NAME": "J & K BP", "PHONE": "2028290962", "GIS_ID": "Gas_59", "X": 397899.19, "Y": 140540.23 }, "geometry": { "type": "Point", "coordinates": [ -77.024178221977564, 38.932771432951668 ] } },
{ "type": "Feature", "properties": { "ADDRESS": "3535 CONNECTICUT AVENUE NW", "ZIP_CODE": "20008", "FULL_SERVI": 0, "ADDRID": 219266, "NAME": "KM Exxon #14", "PHONE": "2023649958", "GIS_ID": "Gas_60", "X": 394924.23, "Y": 140965.37 }, "geometry": { "type": "Point", "coordinates": [ -77.058565978987048, 38.936564325926469 ] } },
{ "type": "Feature", "properties": { "ADDRESS": "3540 14TH STREET NW", "ZIP_CODE": "20010", "FULL_SERVI": 0, "ADDRID": 234782, "NAME": "Columbia Heights Exxon", "PHONE": "2022340026", "GIS_ID": "Gas_61", "X": 397127.41, "Y": 140821.36 }, "geometry": { "type": "Point", "coordinates": [ -77.033085560228912, 38.935327017652909 ] } },
{ "type": "Feature", "properties": { "ADDRESS": "3607 M STREET NW", "ZIP_CODE": "20007", "FULL_SERVI": 0, "ADDRID": 274933, "NAME": "Key Bridge Exxon", "PHONE": "2029653760", "GIS_ID": "Gas_62", "X": 393850.94, "Y": 137492.93 }, "geometry": { "type": "Point", "coordinates": [ -77.070902939001883, 38.905270951338146 ] } },
{ "type": "Feature", "properties": { "ADDRESS": "3701 12TH STREET NE", "ZIP_CODE": "20017", "FULL_SERVI": 0, "ADDRID": 300854, "NAME": "Patti's BP", "PHONE": "2022694488", "GIS_ID": "Gas_63", "X": 400791.42, "Y": 140767.5 }, "geometry": { "type": "Point", "coordinates": [ -76.990872176514415, 38.934792670678775 ] } },
{ "type": "Feature", "properties": { "ADDRESS": "3820 MINNESOTA AVENUE NE", "ZIP_CODE": "20019", "FULL_SERVI": 0, "ADDRID": 30064, "NAME": "Minnesota Avenue Citgo", "PHONE": "2023885722", "GIS_ID": "Gas_64", "X": 404209.53, "Y": 136090.5 }, "geometry": { "type": "Point", "coordinates": [ -76.95143565515562, 38.892697648354734 ] } },
{ "type": "Feature", "properties": { "ADDRESS": "3825 ALABAMA AVENUE SE", "ZIP_CODE": "20020", "FULL_SERVI": 0, "ADDRID": 300855, "NAME": "Fort Davis Exxon", "PHONE": "2025815700", "GIS_ID": "Gas_65", "X": 404323.09, "Y": 133087.22 }, "geometry": { "type": "Point", "coordinates": [ -76.950391642601375, 38.865576542360856 ] } },
{ "type": "Feature", "properties": { "ADDRESS": "3830 MINNESOTA AVENUE NE", "ZIP_CODE": "20019", "FULL_SERVI": 0, "ADDRID": 301051, "NAME": "Minnesota Avenue Shell", "PHONE": "2023963600", "GIS_ID": "Gas_66", "X": 404218.72, "Y": 136090.68 }, "geometry": { "type": "Point", "coordinates": [ -76.951184593301107, 38.892945951795909 ] } },
{ "type": "Feature", "properties": { "ADDRESS": "3900 MARTIN LUTHER KING JR AVENUE SW", "ZIP_CODE": "20032", "FULL_SERVI": 0, "ADDRID": 300857, "NAME": "SW Liberty Service Station", "PHONE": "2025749413", "GIS_ID": "Gas_67", "X": 399239.26, "Y": 129402.54 }, "geometry": { "type": "Point", "coordinates": [ -77.008760548647942, 38.832415755220666 ] } },
{ "type": "Feature", "properties": { "ADDRESS": "400 RHODE ISLAND AVENUE NE", "ZIP_CODE": "20002", "FULL_SERVI": 1, "ADDRID": 288064, "NAME": "Rhode Island BP", "PHONE": "2026354545", "GIS_ID": "Gas_69", "X": 399979.85, "Y": 139150.19 }, "geometry": { "type": "Point", "coordinates": [ -77.000269605258026, 38.920137703432765 ] } },
{ "type": "Feature", "properties": { "ADDRESS": "4000 GEORGIA AVENUE NW", "ZIP_CODE": "20011", "FULL_SERVI": 0, "ADDRID": 223657, "NAME": "Shell Gas Station", "PHONE": "2027234000", "GIS_ID": "Gas_70", "X": 397781.23, "Y": 141348.38 }, "geometry": { "type": "Point", "coordinates": [ -77.025435543525646, 38.940165387775757 ] } },
{ "type": "Feature", "properties": { "ADDRESS": "4100 HUNT PLACE NE", "ZIP_CODE": "20019", "FULL_SERVI": 0, "ADDRID": 288109, "NAME": "Minnesota Avenue Exxon", "PHONE": "2023983125", "GIS_ID": "Gas_71", "X": 404910.56, "Y": 137005.15 }, "geometry": { "type": "Point", "coordinates": [ -76.943748968134798, 38.90071035679042 ] } },
{ "type": "Feature", "properties": { "ADDRESS": "4101 ALABAMA AVENUE SE", "ZIP_CODE": "20019", "FULL_SERVI": 0, "ADDRID": 278474, "NAME": "Fort Dupont BP", "PHONE": "2025843200", "GIS_ID": "Gas_72", "X": 404817.2, "Y": 133610.24 }, "geometry": { "type": "Point", "coordinates": [ -76.944489379449536, 38.87030472386175 ] } },
{ "type": "Feature", "properties": { "ADDRESS": "4140 GEORGIA AVENUE NW", "ZIP_CODE": "20011", "FULL_SERVI": 0, "ADDRID": 284837, "NAME": "Georgia Avenue Shell", "PHONE": "2027227391", "GIS_ID": "Gas_73", "X": 397755.34, "Y": 141501.89 }, "geometry": { "type": "Point", "coordinates": [ -77.025696841821627, 38.941551827035134 ] } },
{ "type": "Feature", "properties": { "ADDRESS": "420 RHODE ISLAND AVENUE NW", "ZIP_CODE": "20001", "FULL_SERVI": 0, "ADDRID": 300859, "NAME": "Lowest Price", "PHONE": "2022324097", "GIS_ID": "Gas_74", "X": 398424.15, "Y": 138382.74 }, "geometry": { "type": "Point", "coordinates": [ -77.018171336707312, 38.913312008171957 ] } },
{ "type": "Feature", "properties": { "ADDRESS": "4225 CONNECTICUT AVENUE NW", "ZIP_CODE": "20008", "FULL_SERVI": 0, "ADDRID": 221312, "NAME": "Lowest Price", "PHONE": "2029665995", "GIS_ID": "Gas_75", "X": 394543.86, "Y": 141795.78 }, "geometry": { "type": "Point", "coordinates": [ -77.062993848039028, 38.944051257279746 ] } },
{ "type": "Feature", "properties": { "ADDRESS": "4321 NANNIE HELEN BURROUGHS AVENUE NE", "ZIP_CODE": "20019", "FULL_SERVI": 0, "ADDRID": 288163, "NAME": "Compass Shell", "PHONE": "2023987750", "GIS_ID": "Gas_77", "X": 405190.06, "Y": 136980.05 }, "geometry": { "type": "Point", "coordinates": [ -76.940167706562065, 38.900662259359983 ] } },
{ "type": "Feature", "properties": { "ADDRESS": "45 FLORIDA AVENUE NE", "ZIP_CODE": "20002", "FULL_SERVI": 0, "ADDRID": 288234, "NAME": "BP", "PHONE": "2025297400", "GIS_ID": "Gas_78", "X": 399371.56, "Y": 137994.94 }, "geometry": { "type": "Point", "coordinates": [ -77.007315646724507, 38.909832490169933 ] } },
{ "type": "Feature", "properties": { "ADDRESS": "4501 14TH STREET NW", "ZIP_CODE": "20011", "FULL_SERVI": 0, "ADDRID": 255205, "NAME": "Davis Exxon", "PHONE": "2022919485", "GIS_ID": "Gas_79", "X": 397206.1, "Y": 141935.56 }, "geometry": { "type": "Point", "coordinates": [ -77.032421289883189, 38.945274069486999 ] } },
{ "type": "Feature", "properties": { "ADDRESS": "4501 BENNING ROAD NE", "ZIP_CODE": "20019", "FULL_SERVI": 0, "ADDRID": 20633, "NAME": "East Capitol Exxon", "PHONE": "2023975340", "GIS_ID": "Gas_80", "X": 405369.4, "Y": 135814.27 }, "geometry": { "type": "Point", "coordinates": [ -76.938129167474855, 38.890160464560367 ] } },
{ "type": "Feature", "properties": { "ADDRESS": "4519 BENNING ROAD SE", "ZIP_CODE": "20019", "FULL_SERVI": 0, "ADDRID": 278509, "NAME": "Lowest Price", "PHONE": "2025831216", "GIS_ID": "Gas_81", "X": 405402.53, "Y": 135708.11 }, "geometry": { "type": "Point", "coordinates": [ -76.937693127569446, 38.889289293887899 ] } },
{ "type": "Feature", "properties": { "ADDRESS": "4650 SOUTH CAPITOL STREET SE", "ZIP_CODE": "20032", "FULL_SERVI": 0, "ADDRID": 18486, "NAME": "Eastover Exxon", "PHONE": "2025620493", "GIS_ID": "Gas_82", "X": 399799.04, "Y": 128306.4 }, "geometry": { "type": "Point", "coordinates": [ -77.002237272063454, 38.822303934034473 ] } },
{ "type": "Feature", "properties": { "ADDRESS": "4700 SOUTH CAPITOL STREET SE", "ZIP_CODE": "20032", "FULL_SERVI": 0, "ADDRID": 276660, "NAME": "South Capitol Mini Mart Shell", "PHONE": "2025620661", "GIS_ID": "Gas_83", "X": 399899.15, "Y": 128235.73 }, "geometry": { "type": "Point", "coordinates": [ -77.001236864166657, 38.821795564597601 ] } },
{ "type": "Feature", "properties": { "ADDRESS": "4812 MACARTHUR BOULEVARD NW", "ZIP_CODE": "20007", "FULL_SERVI": 1, "ADDRID": 284961, "NAME": "Parker's Exxon", "PHONE": "2023373144", "GIS_ID": "Gas_84", "X": 391666.99, "Y": 138719.1 }, "geometry": { "type": "Point", "coordinates": [ -77.096045459668773, 38.916352253265202 ] } },
{ "type": "Feature", "properties": { "ADDRESS": "4861 MASSACHUSETTS AVENUE NW", "ZIP_CODE": "20016", "FULL_SERVI": 1, "ADDRID": 269571, "NAME": "Spring Valley Exxon", "PHONE": "2023622639", "GIS_ID": "Gas_85", "X": 391636.09, "Y": 142029.74 }, "geometry": { "type": "Point", "coordinates": [ -77.096408673689041, 38.94596245516086 ] } },
{ "type": "Feature", "properties": { "ADDRESS": "4900 WISCONSIN AVENUE NW", "ZIP_CODE": "20016", "FULL_SERVI": 0, "ADDRID": 266055, "NAME": "Capital BP", "PHONE": "2022449548", "GIS_ID": "Gas_86", "X": 392844.45, "Y": 142848.5 }, "geometry": { "type": "Point", "coordinates": [ -77.082286372803836, 38.953497188313378 ] } },
{ "type": "Feature", "properties": { "ADDRESS": "4925 SOUTH DAKOTA AVENUE NE", "ZIP_CODE": "20017", "FULL_SERVI": 0, "ADDRID": 301164, "NAME": "Dakota BP", "PHONE": "2028328050", "GIS_ID": "Gas_87", "X": 400656.03, "Y": 142416.61 }, "geometry": { "type": "Point", "coordinates": [ -76.992367360774537, 38.949951739089201 ] } },
{ "type": "Feature", "properties": { "ADDRESS": "4940 CONNECTICUT AVENUE NW", "ZIP_CODE": "20007", "FULL_SERVI": 0, "ADDRID": 222125, "NAME": "Precision Automotive", "PHONE": "2029660408", "GIS_ID": "Gas_88", "X": 393927.74, "Y": 142950.13 }, "geometry": { "type": "Point", "coordinates": [ -77.069899822356206, 38.954460802389079 ] } },
{ "type": "Feature", "properties": { "ADDRESS": "5001 CONNECTICUT AVENUE NW", "ZIP_CODE": "20008", "FULL_SERVI": 1, "ADDRID": 262740, "NAME": "Connecticut Avenue BP", "PHONE": "2022446975", "GIS_ID": "Gas_90", "X": 393982.19, "Y": 143026.88 }, "geometry": { "type": "Point", "coordinates": [ -77.069472424755489, 38.954995787964712 ] } },
{ "type": "Feature", "properties": { "ADDRESS": "5001 GEORGIA AVENUE NW", "ZIP_CODE": "20011", "FULL_SERVI": 0, "ADDRID": 251856, "NAME": "Lowest Price", "PHONE": "2025459570", "GIS_ID": "Gas_91", "X": 397667.49, "Y": 142573.02 }, "geometry": { "type": "Point", "coordinates": [ -77.02697498532936, 38.951046876644114 ] } },
{ "type": "Feature", "properties": { "ADDRESS": "5030 CONNECTICUT AVENUE NW", "ZIP_CODE": "20008", "FULL_SERVI": 0, "ADDRID": 301055, "NAME": "KM Exxon #3", "PHONE": "2023645145", "GIS_ID": "Gas_92", "X": 393879.02, "Y": 143051.86 }, "geometry": { "type": "Point", "coordinates": [ -77.070513905783642, 38.955463448572502 ] } },
{ "type": "Feature", "properties": { "ADDRESS": "520 FLORIDA AVENUE NE", "ZIP_CODE": "20002", "FULL_SERVI": 0, "ADDRID": 277678, "NAME": "Florida Avenue Hess", "PHONE": "2025476441", "GIS_ID": "Gas_93", "X": 400116.36, "Y": 137641.11 }, "geometry": { "type": "Point", "coordinates": [ -76.998656868103424, 38.906628760670429 ] } },
{ "type": "Feature", "properties": { "ADDRESS": "5207 NANNIE HELEN BURROUGHS AVENUE NE", "ZIP_CODE": "20019", "FULL_SERVI": 0, "ADDRID": 288552, "NAME": "Sonny's BP Inc.", "PHONE": "2023992122", "GIS_ID": "Gas_94", "X": 406479.18, "Y": 136684.81 }, "geometry": { "type": "Point", "coordinates": [ -76.925375277553044, 38.898069945239186 ] } },
{ "type": "Feature", "properties": { "ADDRESS": "5420 NEW HAMPSHIRE AVENUE NW", "ZIP_CODE": "20011", "FULL_SERVI": 0, "ADDRID": 245909, "NAME": "Lowest Price", "PHONE": "2027228863", "GIS_ID": "Gas_95", "X": 399138.49, "Y": 143158.25 }, "geometry": { "type": "Point", "coordinates": [ -77.009837907855299, 38.956435807270573 ] } },
{ "type": "Feature", "properties": { "ADDRESS": "5501 SOUTH DAKOTA AVENUE NE", "ZIP_CODE": "20011", "FULL_SERVI": 1, "ADDRID": 155992, "NAME": "Brown & Vaz's Exxon", "PHONE": "2028326220", "GIS_ID": "Gas_96", "X": 399976.58, "Y": 143101.45 }, "geometry": { "type": "Point", "coordinates": [ -77.000269752475901, 38.955818369396134 ] } },
{ "type": "Feature", "properties": { "ADDRESS": "5521 CONNECTICUT AVENUE NW", "ZIP_CODE": "20015", "FULL_SERVI": 1, "ADDRID": 264023, "NAME": "Circle Exxon", "PHONE": "2023646364", "GIS_ID": "Gas_97", "X": 393561.42, "Y": 143989.76 }, "geometry": { "type": "Point", "coordinates": [ -77.074324722426041, 38.963796550203945 ] } },
{ "type": "Feature", "properties": { "ADDRESS": "5831 GEORGIA AVENUE NW", "ZIP_CODE": "20011", "FULL_SERVI": 1, "ADDRID": 285276, "NAME": "Missouri Exxon", "PHONE": "3015892978", "GIS_ID": "Gas_98", "X": 397597.19, "Y": 143640.41 }, "geometry": { "type": "Point", "coordinates": [ -77.027723340322709, 38.96066311623153 ] } },
{ "type": "Feature", "properties": { "ADDRESS": "6201 NEW HAMPSHIRE AVENUE NE", "ZIP_CODE": "20011", "FULL_SERVI": 0, "ADDRID": 3716, "NAME": "Eastern Avenue Shell", "PHONE": "2025295466", "GIS_ID": "Gas_99", "X": 399792.04, "Y": 144146.29 }, "geometry": { "type": "Point", "coordinates": [ -77.002412484124847, 38.965259266528989 ] } },
{ "type": "Feature", "properties": { "ADDRESS": "6300 GEORGIA AVENUE NW", "ZIP_CODE": "20011", "FULL_SERVI": 1, "ADDRID": 253249, "NAME": "Georgia Avenue BP", "PHONE": "2027265300", "GIS_ID": "Gas_100", "X": 397576.26, "Y": 144292.03 }, "geometry": { "type": "Point", "coordinates": [ -77.027993393882483, 38.966600991199087 ] } },
{ "type": "Feature", "properties": { "ADDRESS": "6350 GEORGIA AVENUE NW", "ZIP_CODE": "20011", "FULL_SERVI": 0, "ADDRID": 259632, "NAME": "Putnams Exxon In", "PHONE": "2027239379", "GIS_ID": "Gas_101", "X": 397583.18, "Y": 144325.44 }, "geometry": { "type": "Point", "coordinates": [ -77.027824047978612, 38.966959276571714 ] } },
{ "type": "Feature", "properties": { "ADDRESS": "6401 GEORGIA AVENUE NW", "ZIP_CODE": "20008", "FULL_SERVI": 0, "ADDRID": 254025, "NAME": "Pattie's BP #2", "PHONE": "2027236825", "GIS_ID": "Gas_102", "X": 397672.39, "Y": 144402.23 }, "geometry": { "type": "Point", "coordinates": [ -77.026826963758623, 38.96754558086765 ] } },
{ "type": "Feature", "properties": { "ADDRESS": "6419 GEORGIA AVENUE NW", "ZIP_CODE": "20011", "FULL_SERVI": 1, "ADDRID": 254024, "NAME": "J & K Shell", "PHONE": "2027290762", "GIS_ID": "Gas_103", "X": 397655.63, "Y": 144467.06 }, "geometry": { "type": "Point", "coordinates": [ -77.027083258298234, 38.968120265715072 ] } },
{ "type": "Feature", "properties": { "ADDRESS": "7000 BLAIR ROAD NW", "ZIP_CODE": "20012", "FULL_SERVI": 0, "ADDRID": 249127, "NAME": "Takoma Metro BP", "PHONE": "2028827850", "GIS_ID": "Gas_104", "X": 398346.95, "Y": 145235.41 }, "geometry": { "type": "Point", "coordinates": [ -77.019004302028847, 38.975015977998503 ] } },
{ "type": "Feature", "properties": { "ADDRESS": "7401 GEORGIA AVENUE NW", "ZIP_CODE": "20012", "FULL_SERVI": 0, "ADDRID": 253740, "NAME": "Walter Reed Exxon", "PHONE": "2027267327", "GIS_ID": "Gas_105", "X": 397741.14, "Y": 145748.22 }, "geometry": { "type": "Point", "coordinates": [ -77.026089166258515, 38.979687232873381 ] } },
{ "type": "Feature", "properties": { "ADDRESS": "7605 GEORGIA AVENUE NW", "ZIP_CODE": "20002", "FULL_SERVI": 0, "ADDRID": 253716, "NAME": "Georgia Avenue BP", "PHONE": "2027237588", "GIS_ID": "Gas_106", "X": 397738.2, "Y": 146033.75 }, "geometry": { "type": "Point", "coordinates": [ -77.026128795784274, 38.982229541669355 ] } },
{ "type": "Feature", "properties": { "ADDRESS": "814 BLADENSBURG ROAD NE", "ZIP_CODE": "20002", "FULL_SERVI": 0, "ADDRID": 288979, "NAME": "Bladensburg BP", "PHONE": "2023988011", "GIS_ID": "Gas_107", "X": 401469.93, "Y": 137030.22 }, "geometry": { "type": "Point", "coordinates": [ -76.98315622220133, 38.901190029462008 ] } },
{ "type": "Feature", "properties": { "ADDRESS": "823 PENNSYLVANIA AVENUE SE", "ZIP_CODE": "20003", "FULL_SERVI": 0, "ADDRID": 280153, "NAME": "Distads BP", "PHONE": "2025430200", "GIS_ID": "Gas_108", "X": 400500.02, "Y": 135070.72 }, "geometry": { "type": "Point", "coordinates": [ -76.993964725280193, 38.883383682728009 ] } },
{ "type": "Feature", "properties": { "ADDRESS": "908 FLORIDA AVENUE NW", "ZIP_CODE": "20001", "FULL_SERVI": 0, "ADDRID": 239467, "NAME": "Florida Avenue Liberty", "PHONE": null, "GIS_ID": "Gas_109", "X": 397880.9, "Y": 138881.95 }, "geometry": { "type": "Point", "coordinates": [ -77.024329588514078, 38.917897826766833 ] } },
{ "type": "Feature", "properties": { "ADDRESS": "3101 RHODE ISLAND AVENUE NE", "ZIP_CODE": "20018", "FULL_SERVI": 0, "ADDRID": 287515, "NAME": "Shell Rhode Island Ave", "PHONE": "2025263977", "GIS_ID": "Gas_111", "X": 403100.17, "Y": 140725.25 }, "geometry": { "type": "Point", "coordinates": [ -76.9642434129008, 38.934406998660961 ] } },
{ "type": "Feature", "properties": { "ADDRESS": "4200 NANNIE HELEN BURROUGHS AVENUE NE", "ZIP_CODE": "20019", "FULL_SERVI": 0, "ADDRID": 288132, "NAME": "Northeast Chevron", "PHONE": "2023991191", "GIS_ID": "Gas_112", "X": 405037.33, "Y": 137131.42 }, "geometry": { "type": "Point", "coordinates": [ -76.941925932905136, 38.902023081570299 ] } },
{ "type": "Feature", "properties": { "ADDRESS": "4900 BATES ROAD NE", "ZIP_CODE": "20011", "FULL_SERVI": 0, "ADDRID": 301206, "NAME": "Department of Public Works", "PHONE": null, "GIS_ID": "Gas_113", "X": 399765.11, "Y": 142155.0 }, "geometry": { "type": "Point", "coordinates": [ -77.001029866779106, 38.947610642007533 ] } },
{ "type": "Feature", "properties": { "ADDRESS": "SCALE GATE ROAD NW", "ZIP_CODE": "20011", "FULL_SERVI": 0, "ADDRID": 292895, "NAME": "Soldier's Home", "PHONE": null, "GIS_ID": "Gas_114", "X": 399331.02, "Y": 140829.299 }, "geometry": { "type": "Point", "coordinates": [ -77.00771515678602, 38.935349516946289 ] } },
{ "type": "Feature", "properties": { "ADDRESS": "2450 WISCONSIN AVENUE NW", "ZIP_CODE": "20007", "FULL_SERVI": 0, "ADDRID": 295037, "NAME": "Georgetown Chevron", "PHONE": "2023376277", "GIS_ID": "Gas_115", "X": 393672.16, "Y": 139375.1 }, "geometry": { "type": "Point", "coordinates": [ -77.073001577349018, 38.922349912840417 ] } },
{ "type": "Feature", "properties": { "ADDRESS": "1835 WEST VIRGINIA AVENUE NE", "ZIP_CODE": "20002", "FULL_SERVI": 0, "ADDRID": 301204, "NAME": "Department of Public Works", "PHONE": null, "GIS_ID": "Gas_116", "X": 401422.49, "Y": 138248.98 }, "geometry": { "type": "Point", "coordinates": [ -76.983362171426265, 38.912133379038103 ] } },
{ "type": "Feature", "properties": { "ADDRESS": "4TH AVENUE SW", "ZIP_CODE": "20024", "FULL_SERVI": 0, "ADDRID": 293014, "NAME": "Fort McNair Shoppette", "PHONE": "2024845823", "GIS_ID": "Gas_117", "X": 398656.51, "Y": 133696.92 }, "geometry": { "type": "Point", "coordinates": [ -77.015485575465192, 38.87109597104979 ] } },
{ "type": "Feature", "properties": { "ADDRESS": "100 42ND STREET NE", "ZIP_CODE": null, "FULL_SERVI": 0, "ADDRID": 294469, "NAME": "6th District Police Station", "PHONE": "2026980880", "GIS_ID": "Gas_118", "X": 404954.87, "Y": 136072.46 }, "geometry": { "type": "Point", "coordinates": [ -76.942854185504842, 38.892208099279102 ] } },
{ "type": "Feature", "properties": { "ADDRESS": "4400 BENNING ROAD NE", "ZIP_CODE": "20019", "FULL_SERVI": 0, "ADDRID": 288186, "NAME": "Benning Citgo", "PHONE": "2023975992", "GIS_ID": "Gas_119", "X": 405321.74, "Y": 135978.61 }, "geometry": { "type": "Point", "coordinates": [ -76.938654807991142, 38.891635149866723 ] } },
{ "type": "Feature", "properties": { "ADDRESS": "1301 BLADENSBURG ROAD NE", "ZIP_CODE": "20002", "FULL_SERVI": 0, "ADDRID": 300661, "NAME": "Lowest Price", "PHONE": "2023962070", "GIS_ID": "Gas_120", "X": 401896.57, "Y": 137744.97 }, "geometry": { "type": "Point", "coordinates": [ -76.978136843404585, 38.907564816586458 ] } },
{ "type": "Feature", "properties": { "ADDRESS": "1800 18TH STREET NW", "ZIP_CODE": "20009", "FULL_SERVI": 0, "ADDRID": 241151, "NAME": "Yu's Service Inc.", "PHONE": "2023329707", "GIS_ID": "Gas_121", "X": 396366.08, "Y": 138499.35 }, "geometry": { "type": "Point", "coordinates": [ -77.041900192998895, 38.914351625020174 ] } },
{ "type": "Feature", "properties": { "ADDRESS": "2800 12TH STREET NE", "ZIP_CODE": "20017", "FULL_SERVI": 0, "ADDRID": 44895, "NAME": "Lowest Price", "PHONE": "2022690925", "GIS_ID": "Gas_122", "X": 400795.53, "Y": 139777.86 }, "geometry": { "type": "Point", "coordinates": [ -76.990825253752703, 38.925876612232464 ] } },
{ "type": "Feature", "properties": { "ADDRESS": "1801 WEST VIRGINIA AVENUE NE", "ZIP_CODE": "20002", "FULL_SERVI": 0, "ADDRID": 55987, "NAME": "Lowest Price", "PHONE": "2025265258", "GIS_ID": "Gas_123", "X": 401290.12, "Y": 138065.33 }, "geometry": { "type": "Point", "coordinates": [ -76.985264082803738, 38.910646596724625 ] } }
]
}
