{
"type": "FeatureCollection",
"crs": { "type": "name", "properties": { "name": "urn:ogc:def:crs:OGC:1.3:CRS84" } },
                                                                                
"features": [
{ "type": "Feature", "properties": { "OBJECTID": 127.0, "WEB_URL": "http:\/\/www.sofitel.com\/gb\/hotel-3293-sofitel-washington-dc-lafayette-square\/index.shtml", "PHONE": "202-737-8800", "ZIP": "20005", "GIS_ID": "Htl_129", "ADDRESS": "806 15TH STREET NW", "NUMROOMS": 237, "NAME": "HOTEL SOFITEL LAFAYETTE SQUARE", "X": 397051.78, "Y": 136961.98, "ADDRID": 279949.0 }, "geometry": { "type": "Point", "coordinates": [ -77.03398789038738, 38.900505637204994 ] } },
{ "type": "Feature", "properties": { "OBJECTID": 128.0, "WEB_URL": "http:\/\/www.thejeffersonwashingtondc.com\/", "PHONE": "202-347-2200", "ZIP": "20036", "GIS_ID": "Htl_130", "ADDRESS": "1200 16TH STREET NW", "NUMROOMS": 99, "NAME": "JEFFERSON HOTEL", "X": 396794.58, "Y": 137565.11, "ADDRID": 242021.0 }, "geometry": { "type": "Point", "coordinates": [ -77.036955777120738, 38.905937944596829 ] } },
{ "type": "Feature", "properties": { "OBJECTID": 131.0, "WEB_URL": "http:\/\/marriott.com\/property\/propertypage\/WASCP", "PHONE": "202-484-8280", "ZIP": "20024", "GIS_ID": "Htl_133", "ADDRESS": "333 E STREET SW", "NUMROOMS": 223, "NAME": "RESIDENCE INN CAPITOL", "X": 398617.82, "Y": 135086.41, "ADDRID": 277584.0 }, "geometry": { "type": "Point", "coordinates": [ -77.015930378283159, 38.883613664180757 ] } },
{ "type": "Feature", "properties": { "OBJECTID": 137.0, "WEB_URL": "www.themadisondc.com", "PHONE": "202-862-1600", "ZIP": "20005", "GIS_ID": "Htl_139", "ADDRESS": "1177 15TH STREET NW", "NUMROOMS": 353, "NAME": "THE MADISON HOTEL", "X": 397045.73, "Y": 137501.85, "ADDRID": 240251.0 }, "geometry": { "type": "Point", "coordinates": [ -77.034059958546905, 38.905368956471847 ] } },
{ "type": "Feature", "properties": { "OBJECTID": 138.0, "WEB_URL": "http:\/\/www.melrosehoteldc.com", "PHONE": "202-955-6400", "ZIP": "20037", "GIS_ID": "Htl_140", "ADDRESS": "2430 PENNSYLVANIA AVENUE NW", "NUMROOMS": 239, "NAME": "MELROSE HOTEL", "X": 395430.7, "Y": 137240.97, "ADDRID": 279592.0 }, "geometry": { "type": "Point", "coordinates": [ -77.052677998667889, 38.903011946173045 ] } },
{ "type": "Feature", "properties": { "OBJECTID": 140.0, "WEB_URL": "http:\/\/www.hiexpress.com\/hotels\/us\/en\/washington\/wasny\/hoteldetail", "PHONE": "202-832-8600", "ZIP": "20002", "GIS_ID": "Htl_142", "ADDRESS": "1917 BLADENSBURG ROAD NE", "NUMROOMS": 150, "NAME": "HOLIDAY INN EXPRESS NORTHEAST", "X": 402415.8, "Y": 138732.96, "ADDRID": 286535.0 }, "geometry": { "type": "Point", "coordinates": [ -76.972143763322293, 38.916460859124591 ] } },
{ "type": "Feature", "properties": { "OBJECTID": 141.0, "WEB_URL": "http:\/\/www.hilton.com\/", "PHONE": "202-483-3000", "ZIP": "20009", "GIS_ID": "Htl_143", "ADDRESS": "1919 CONNECTICUT AVENUE NW", "NUMROOMS": 1118, "NAME": "HILTON - WASHINGTON DC", "X": 396076.89, "Y": 138733.91, "ADDRID": 242829.0 }, "geometry": { "type": "Point", "coordinates": [ -77.045236811090831, 38.916463981070422 ] } },
{ "type": "Feature", "properties": { "OBJECTID": 142.0, "WEB_URL": "http:\/\/www.washingtonsuitesgeorgetown.com\/", "PHONE": "202-338-8060", "ZIP": "20037", "GIS_ID": "Htl_144", "ADDRESS": "2500 PENNSYLVANIA AVENUE NW", "NUMROOMS": 124, "NAME": "WASHINGTON SUITES GEORGETOWN", "X": 395344.68, "Y": 137287.83, "ADDRID": 273885.0 }, "geometry": { "type": "Point", "coordinates": [ -77.053670013129064, 38.903433626169473 ] } },
{ "type": "Feature", "properties": { "OBJECTID": 143.0, "WEB_URL": "http:\/\/www.ritzcarlton.com\/hotels\/georgetown\/", "PHONE": "202-912-4100", "ZIP": "20007", "GIS_ID": "Htl_145", "ADDRESS": "3100 SOUTH STREET NW", "NUMROOMS": 86, "NAME": "RITZ CARLTON GEORGETOWN", "X": 394648.0, "Y": 137263.68, "ADDRID": 300061.0 }, "geometry": { "type": "Point", "coordinates": [ -77.061701671113639, 38.903212108675916 ] } },
{ "type": "Feature", "properties": { "OBJECTID": 144.0, "WEB_URL": "http:\/\/www.marriott.com\/hotels\/travel\/wasdt-washington-marriott-wardman-park\/", "PHONE": "202-234-0015", "ZIP": "20008", "GIS_ID": "Htl_146", "ADDRESS": "2660 WOODLEY ROAD NW", "NUMROOMS": 1334, "NAME": "MARRIOTT WARDMAN PARK HOTEL", "X": 395256.86, "Y": 139650.43, "ADDRID": 284450.0 }, "geometry": { "type": "Point", "coordinates": [ -77.05469878809383, 38.924716246145174 ] } },
{ "type": "Feature", "properties": { "OBJECTID": 146.0, "WEB_URL": "http:\/\/www.windsor-inn-dc.com\/", "PHONE": "202-667-0300", "ZIP": "20009", "GIS_ID": "Htl_148", "ADDRESS": "1842 16TH STREET NW", "NUMROOMS": 36, "NAME": "WINDSOR INN", "X": 396795.86, "Y": 138602.89, "ADDRID": 241907.0 }, "geometry": { "type": "Point", "coordinates": [ -77.036945862114536, 38.915286624805034 ] } },
{ "type": "Feature", "properties": { "OBJECTID": 147.0, "WEB_URL": "http:\/\/www.crshotels-georgetownhillinn.com\/", "PHONE": "202-298-6020", "ZIP": "20007", "GIS_ID": "Htl_149", "ADDRESS": "1832 WISCONSIN AVENUE NW", "NUMROOMS": 0, "NAME": "GEORGETOWN HILL INN", "X": 394121.48, "Y": 138623.6, "ADDRID": 274540.0 }, "geometry": { "type": "Point", "coordinates": [ -77.067783408165283, 38.915459367948898 ] } },
{ "type": "Feature", "properties": { "OBJECTID": 149.0, "WEB_URL": "http:\/\/www.americanguesthouse.com", "PHONE": "202-588-1180", "ZIP": "20009", "GIS_ID": "Htl_152", "ADDRESS": "2007 COLUMBIA ROAD NW", "NUMROOMS": 0, "NAME": "AMERICAN GUEST HOUSE", "X": 396015.73, "Y": 138872.49, "ADDRID": 235122.0 }, "geometry": { "type": "Point", "coordinates": [ -77.045942842241132, 38.917712080208155 ] } },
{ "type": "Feature", "properties": { "OBJECTID": 150.0, "WEB_URL": "http:\/\/www.omansion.com", "PHONE": "202-496-2020", "ZIP": "20036", "GIS_ID": "Htl_153", "ADDRESS": "2020 O STREET NW", "NUMROOMS": 23, "NAME": "THE MANSION ON O STREET", "X": 396016.74, "Y": 137836.91, "ADDRID": 243057.0 }, "geometry": { "type": "Point", "coordinates": [ -77.045925188461723, 38.90838323216196 ] } },
{ "type": "Feature", "properties": { "OBJECTID": 1.0, "WEB_URL": "http:\/\/www.wlewishous.com\/", "PHONE": "202-462-7574", "ZIP": "20009", "GIS_ID": "Htl_1", "ADDRESS": "1309 R STREET NW", "NUMROOMS": 10, "NAME": "WILLIAM LEWIS HOUSE BED & BREAKFAST", "X": 397388.27, "Y": 138325.9, "ADDRID": 240527.0 }, "geometry": { "type": "Point", "coordinates": [ -77.030113928353074, 38.912793366232052 ] } },
{ "type": "Feature", "properties": { "OBJECTID": 2.0, "WEB_URL": "http:\/\/www.dupontatthecircle.com\/", "PHONE": "202-332-5251", "ZIP": "20009", "GIS_ID": "Htl_2", "ADDRESS": "1604 19TH STREET NW", "NUMROOMS": 10, "NAME": "THE DUPONT AT THE CIRCLE", "X": 396207.71, "Y": 138167.0, "ADDRID": 241038.0 }, "geometry": { "type": "Point", "coordinates": [ -77.043725213863013, 38.911357640274396 ] } },
{ "type": "Feature", "properties": { "OBJECTID": 3.0, "WEB_URL": "http:\/\/www.thedupontcollection.com\/", "PHONE": "202-467-6777", "ZIP": "20036", "GIS_ID": "Htl_3", "ADDRESS": "1312 19TH STREET NW", "NUMROOMS": 6, "NAME": "INN AT DUPONT CIRCLE (South)", "X": 396210.2, "Y": 137765.64, "ADDRID": 241066.0 }, "geometry": { "type": "Point", "coordinates": [ -77.043694289098482, 38.90774206291087 ] } },
{ "type": "Feature", "properties": { "OBJECTID": 5.0, "WEB_URL": "www.remington-dc.com\/", "PHONE": "202-223-4512", "ZIP": "20037", "GIS_ID": "Htl_5", "ADDRESS": "601 24TH STREET NW", "NUMROOMS": 25, "NAME": "THE REMINGTON", "X": 395564.07, "Y": 136692.52, "ADDRID": 226087.0 }, "geometry": { "type": "Point", "coordinates": [ -77.051136877022358, 38.898071996405427 ] } },
{ "type": "Feature", "properties": { "OBJECTID": 7.0, "WEB_URL": null, "PHONE": "202-546-6622", "ZIP": "20003", "GIS_ID": "Htl_7", "ADDRESS": "506 EAST CAPITOL STREET NE", "NUMROOMS": 4, "NAME": "DOOLITTLE GUEST HOUSE", "X": 400085.58, "Y": 135809.49, "ADDRID": 13941.0 }, "geometry": { "type": "Point", "coordinates": [ -76.999013553763845, 38.890128525398936 ] } },
{ "type": "Feature", "properties": { "OBJECTID": 8.0, "WEB_URL": "http:\/\/www.bedandbreakfastdc.com\/index.php?id=56#", "PHONE": "202-328-3510", "ZIP": "20003", "GIS_ID": "Htl_8", "ADDRESS": "504 INDEPENDENCE AVENUE SE", "NUMROOMS": 1, "NAME": "INDEPENDENCE HOUSE BED & BREAKFAST", "X": 400070.75, "Y": 135549.76, "ADDRID": 14495.0 }, "geometry": { "type": "Point", "coordinates": [ -76.999184519952209, 38.887788781190601 ] } },
{ "type": "Feature", "properties": { "OBJECTID": 9.0, "WEB_URL": "http:\/\/www.bbonline.com\/dc\/capitol", "PHONE": "202-543-1020", "ZIP": "20003", "GIS_ID": "Htl_9", "ADDRESS": "134 12TH STREET SE", "NUMROOMS": 2, "NAME": "A CAPITOL PLACE BED & BREAKFAST", "X": 400869.56, "Y": 135613.84, "ADDRID": 66757.0 }, "geometry": { "type": "Point", "coordinates": [ -76.989977179295352, 38.888365610846428 ] } },
{ "type": "Feature", "properties": { "OBJECTID": 10.0, "WEB_URL": null, "PHONE": "202-543-0102", "ZIP": "20003", "GIS_ID": "Htl_10", "ADDRESS": "604 SOUTH CAROLINA AVENUE SE", "NUMROOMS": 0, "NAME": "HEREFORD HOUSE", "X": 400157.98, "Y": 135087.99, "ADDRID": 5379.0 }, "geometry": { "type": "Point", "coordinates": [ -76.998179193962898, 38.883628969639993 ] } },
{ "type": "Feature", "properties": { "OBJECTID": 11.0, "WEB_URL": "http:\/\/www.bbonline.com\/dc\/maisonorleans", "PHONE": "202-544-3694", "ZIP": "20003", "GIS_ID": "Htl_11", "ADDRESS": "414 5TH STREET SE", "NUMROOMS": 3, "NAME": "MAISON ORLEANS BED & BREAKFAST", "X": 400063.82, "Y": 135103.9, "ADDRID": 26173.0 }, "geometry": { "type": "Point", "coordinates": [ -76.999264438063534, 38.88377230491227 ] } },
{ "type": "Feature", "properties": { "OBJECTID": 13.0, "WEB_URL": null, "PHONE": "202-882-2344", "ZIP": "20012", "GIS_ID": "Htl_13", "ADDRESS": "7129 16TH STREET NW", "NUMROOMS": 2, "NAME": "COTTAGE ON 16TH", "X": 396915.62, "Y": 145453.37, "ADDRID": 256175.0 }, "geometry": { "type": "Point", "coordinates": [ -77.035595750395132, 38.976998095060743 ] } },
{ "type": "Feature", "properties": { "OBJECTID": 14.0, "WEB_URL": "http:\/\/mysite.verizon.net\/igh_dc\/", "PHONE": "202-726-5808", "ZIP": "20011", "GIS_ID": "Htl_14", "ADDRESS": "1441 KENNEDY STREET NW", "NUMROOMS": 5, "NAME": "INTERNATIONAL GUEST HOUSE", "X": 396932.7, "Y": 143169.27, "ADDRID": 255891.0 }, "geometry": { "type": "Point", "coordinates": [ -77.035388417533753, 38.956422424775724 ] } },
{ "type": "Feature", "properties": { "OBJECTID": 15.0, "WEB_URL": "http:\/\/www.georgetownsuites.com\/", "PHONE": "800-348-7203", "ZIP": "20007", "GIS_ID": "Htl_16", "ADDRESS": "1000 29TH STREET NW", "NUMROOMS": 200, "NAME": "GEORGETOWN SUITES", "X": 394938.04, "Y": 137231.28, "ADDRID": 276422.0 }, "geometry": { "type": "Point", "coordinates": [ -77.058357645393713, 38.90292195620389 ] } },
{ "type": "Feature", "properties": { "OBJECTID": 16.0, "WEB_URL": "http:\/\/www.thechurchillhotel.com\/", "PHONE": "202-797-2000", "ZIP": "20009", "GIS_ID": "Htl_17", "ADDRESS": "1914 CONNECTICUT AVENUE NW", "NUMROOMS": 173, "NAME": "THE CHURCHILL HOTEL", "X": 395927.4, "Y": 138724.01, "ADDRID": 235060.0 }, "geometry": { "type": "Point", "coordinates": [ -77.046960499526662, 38.916374118568022 ] } },
{ "type": "Feature", "properties": { "OBJECTID": 17.0, "WEB_URL": "http:\/\/www.capitalhotelswdc.com\/StGregoryHotelWDC_com\/", "PHONE": "202-530-3600", "ZIP": "20036", "GIS_ID": "Htl_18", "ADDRESS": "2033 M STREET NW", "NUMROOMS": 154, "NAME": "SAINT GREGORY", "X": 395985.66, "Y": 137561.81, "ADDRID": 279520.0 }, "geometry": { "type": "Point", "coordinates": [ -77.046281918716303, 38.905904894856604 ] } },
{ "type": "Feature", "properties": { "OBJECTID": 18.0, "WEB_URL": "http:\/\/www.tabardinn.com\/", "PHONE": "202-785-1277", "ZIP": "20036", "GIS_ID": "Htl_19", "ADDRESS": "1739 N STREET NW", "NUMROOMS": 40, "NAME": "TABARD INN", "X": 396531.39, "Y": 137733.56, "ADDRID": 218468.0 }, "geometry": { "type": "Point", "coordinates": [ -77.039990985259593, 38.90745440140055 ] } },
{ "type": "Feature", "properties": { "OBJECTID": 19.0, "WEB_URL": "http:\/\/www.hiwashingtondc.org\/", "PHONE": "202-737-2333", "ZIP": "20001", "GIS_ID": "Htl_20", "ADDRESS": "1009 11TH STREET NW", "NUMROOMS": 38, "NAME": "HOSTELLING INTERNATIONAL", "X": 397679.23, "Y": 137228.7, "ADDRID": 239366.0 }, "geometry": { "type": "Point", "coordinates": [ -77.026755376009248, 38.902910226221678 ] } },
{ "type": "Feature", "properties": { "OBJECTID": 20.0, "WEB_URL": "http:\/\/www.ritzcarlton.com\/en\/Properties\/WashingtonDC\/Default.htm", "PHONE": "202-835-0500", "ZIP": "20037", "GIS_ID": "Htl_21", "ADDRESS": "1150 22ND STREET NW", "NUMROOMS": 300, "NAME": "RITZ-CARLTON", "X": 395743.76, "Y": 137408.03, "ADDRID": 278889.0 }, "geometry": { "type": "Point", "coordinates": [ -77.049069866012843, 38.904518452923114 ] } },
{ "type": "Feature", "properties": { "OBJECTID": 21.0, "WEB_URL": "http:\/\/www.districthotel.com\/", "PHONE": "202-232-7800", "ZIP": "20005", "GIS_ID": "Htl_22", "ADDRESS": "1440 RHODE ISLAND AVENUE NW", "NUMROOMS": 58, "NAME": "DISTRICT HOTEL", "X": 397116.94, "Y": 137792.42, "ADDRID": 218282.0 }, "geometry": { "type": "Point", "coordinates": [ -77.033240194008357, 38.907986748323296 ] } },
{ "type": "Feature", "properties": { "OBJECTID": 22.0, "WEB_URL": "http:\/\/www.monaco-dc.com\/", "PHONE": "202-628-7177", "ZIP": "20436", "GIS_ID": "Htl_23", "ADDRESS": "700 F STREET NW", "NUMROOMS": 184, "NAME": "HOTEL MONACO", "X": 398051.36, "Y": 136571.24, "ADDRID": 301590.0 }, "geometry": { "type": "Point", "coordinates": [ -77.022463349592144, 38.896988494729435 ] } },
{ "type": "Feature", "properties": { "OBJECTID": 25.0, "WEB_URL": "http:\/\/www.homewood-suites.com\/", "PHONE": "202-265-8000", "ZIP": "20005", "GIS_ID": "Htl_26", "ADDRESS": "1475 MASSACHUSETTS AVENUE NW", "NUMROOMS": 175, "NAME": "HOMEWOOD SUITES - THOMAS CIRCLE", "X": 397087.19, "Y": 137647.0, "ADDRID": 279197.0 }, "geometry": { "type": "Point", "coordinates": [ -77.033582579342806, 38.906676656567399 ] } },
{ "type": "Feature", "properties": { "OBJECTID": 26.0, "WEB_URL": "http:\/\/www.residenceinn.com\/", "PHONE": "202-466-6800", "ZIP": "20037", "GIS_ID": "Htl_27", "ADDRESS": "2120 P STREET NW", "NUMROOMS": 107, "NAME": "RESIDENCE INN - DUPONT CIRCLE", "X": 395895.68, "Y": 137950.94, "ADDRID": 279547.0 }, "geometry": { "type": "Point", "coordinates": [ -77.047321636844003, 38.909409896522185 ] } },
{ "type": "Feature", "properties": { "OBJECTID": 27.0, "WEB_URL": "http:\/\/www.clubquarters.com\/", "PHONE": "202-463-6400", "ZIP": "20006", "GIS_ID": "Htl_28", "ADDRESS": "839 17TH STREET NW", "NUMROOMS": 160, "NAME": "CLUB QUARTERS", "X": 396596.19, "Y": 137025.43, "ADDRID": 218777.0 }, "geometry": { "type": "Point", "coordinates": [ -77.039240370930628, 38.901075571337152 ] } },
{ "type": "Feature", "properties": { "OBJECTID": 28.0, "WEB_URL": "http:\/\/www.hojo.com\/", "PHONE": "800-406-1411", "ZIP": "20002", "GIS_ID": "Htl_29", "ADDRESS": "600 NEW YORK AVENUE NE", "NUMROOMS": 49, "NAME": "HOWARD JOHNSON EXPRESS INN", "X": 400381.05, "Y": 138273.43, "ADDRID": 288753.0 }, "geometry": { "type": "Point", "coordinates": [ -76.995606423037799, 38.912324496693479 ] } },
{ "type": "Feature", "properties": { "OBJECTID": 29.0, "WEB_URL": "http:\/\/www.qualityinn.com\/hotel-washington-district_of_columbia-DC009", "PHONE": "202-543-7400", "ZIP": "20002", "GIS_ID": "Htl_30", "ADDRESS": "501 NEW YORK AVENUE NE", "NUMROOMS": 78, "NAME": "QUALITY INN", "X": 400267.8, "Y": 138120.84, "ADDRID": 288413.0 }, "geometry": { "type": "Point", "coordinates": [ -76.996912275987611, 38.910949955973614 ] } },
{ "type": "Feature", "properties": { "OBJECTID": 30.0, "WEB_URL": "http:\/\/www.daysinn.com\/", "PHONE": "202-832-5800", "ZIP": "20002", "GIS_ID": "Htl_31", "ADDRESS": "2700 NEW YORK AVENUE NE", "NUMROOMS": 193, "NAME": "DAYS INN GATEWAY", "X": 402549.67, "Y": 138901.29, "ADDRID": 287175.0 }, "geometry": { "type": "Point", "coordinates": [ -76.970599502906836, 38.917976853097052 ] } },
{ "type": "Feature", "properties": { "OBJECTID": 31.0, "WEB_URL": "http:\/\/www.motel6.com", "PHONE": "202-722-1600", "ZIP": "20012", "GIS_ID": "Htl_32", "ADDRESS": "6711 GEORGIA AVENUE NW", "NUMROOMS": 73, "NAME": "MOTEL 6 WASHINGTON DC", "X": 397678.38, "Y": 144905.56, "ADDRID": 285354.0 }, "geometry": { "type": "Point", "coordinates": [ -77.026791149312345, 38.972065644421086 ] } },
{ "type": "Feature", "properties": { "OBJECTID": 32.0, "WEB_URL": "http:\/\/www.theallenleehotel.com\/", "PHONE": "202-331-1224", "ZIP": "20037", "GIS_ID": "Htl_33", "ADDRESS": "2224 F STREET NW", "NUMROOMS": 87, "NAME": "ALLEN LEE HOTEL", "X": 395691.86, "Y": 136591.26, "ADDRID": 242724.0 }, "geometry": { "type": "Point", "coordinates": [ -77.049663094247336, 38.897160445338464 ] } },
{ "type": "Feature", "properties": { "OBJECTID": 33.0, "WEB_URL": "http:\/\/www.capitolskyline.com\/", "PHONE": "202-488-7500", "ZIP": "20024", "GIS_ID": "Htl_34", "ADDRESS": "10 I STREET SW", "NUMROOMS": 203, "NAME": "CAPITOL SKYLINE HOTEL", "X": 399130.97, "Y": 134562.61, "ADDRID": 276385.0 }, "geometry": { "type": "Point", "coordinates": [ -77.010015382408, 38.878895727393953 ] } },
{ "type": "Feature", "properties": { "OBJECTID": 34.0, "WEB_URL": "http:\/\/www.georgetowndchotel.com\/", "PHONE": "202-457-0565", "ZIP": "20037", "GIS_ID": "Htl_35", "ADDRESS": "1121 NEW HAMPSHIRE AVENUE NW", "NUMROOMS": 76, "NAME": "BEST WESTERN GEORGETOWN HOTEL & SUITES", "X": 395840.73, "Y": 137384.06, "ADDRID": 242738.0 }, "geometry": { "type": "Point", "coordinates": [ -77.047951761334758, 38.904302986972475 ] } },
{ "type": "Feature", "properties": { "OBJECTID": 35.0, "WEB_URL": "http:\/\/www.thompsonhotels.com\/hotels\/dc\/donovan-house", "PHONE": "202-737-1200", "ZIP": "20005", "GIS_ID": "Htl_36", "ADDRESS": "1155 14TH STREET NW", "NUMROOMS": 0, "NAME": "DONOVAN HOUSE", "X": 397261.85, "Y": 137470.8, "ADDRID": 242940.0 }, "geometry": { "type": "Point", "coordinates": [ -77.031568174335163, 38.90508994703923 ] } },
{ "type": "Feature", "properties": { "OBJECTID": 36.0, "WEB_URL": "http:\/\/www.hilton.com\/", "PHONE": "202-543-6000", "ZIP": "20036", "GIS_ID": "Htl_37", "ADDRESS": "1001 16TH STREET NW", "NUMROOMS": 544, "NAME": "CAPITAL HILTON", "X": 396883.19, "Y": 137252.47, "ADDRID": 278775.0 }, "geometry": { "type": "Point", "coordinates": [ -77.035932760209505, 38.903121892595216 ] } },
{ "type": "Feature", "properties": { "OBJECTID": 37.0, "WEB_URL": "http:\/\/www.comfortinn.com\/hotel-washington-district_of_columbia-DC601", "PHONE": "202-682-5300", "ZIP": "20005", "GIS_ID": "Htl_38", "ADDRESS": "1201 13TH STREET NW", "NUMROOMS": 100, "NAME": "COMFORT INN DOWNTOWN DC\/CONVENTION CENTER WASHINGTON", "X": 397454.33, "Y": 137561.18, "ADDRID": 240912.0 }, "geometry": { "type": "Point", "coordinates": [ -77.029349404554509, 38.90590470015853 ] } },
{ "type": "Feature", "properties": { "OBJECTID": 38.0, "WEB_URL": "http:\/\/www.courtyard.com\/", "PHONE": "202-638-4600", "ZIP": "20004", "GIS_ID": "Htl_39", "ADDRESS": "900 F STREET NW", "NUMROOMS": 188, "NAME": "COURTYARD CONVENTION CENTER", "X": 397889.76, "Y": 136579.88, "ADDRID": 243269.0 }, "geometry": { "type": "Point", "coordinates": [ -77.024326253385325, 38.897065953915174 ] } },
{ "type": "Feature", "properties": { "OBJECTID": 39.0, "WEB_URL": "http:\/\/www.hamiltonhoteldc.com\/", "PHONE": "202-682-0111", "ZIP": "20005", "GIS_ID": "Htl_40", "ADDRESS": "1001 14TH STREET NW", "NUMROOMS": 318, "NAME": "HAMILTON CROWNE PLAZA HOTEL", "X": 397260.09, "Y": 137229.87, "ADDRID": 240644.0 }, "geometry": { "type": "Point", "coordinates": [ -77.031587504270718, 38.902919559442246 ] } },
{ "type": "Feature", "properties": { "OBJECTID": 40.0, "WEB_URL": "http:\/\/www.starwood.com\/sheraton\/index.html", "PHONE": "202-289-7600", "ZIP": "20005", "GIS_ID": "Htl_41", "ADDRESS": "1201 K STREET NW", "NUMROOMS": 256, "NAME": "FOUR POINTS SHERATON", "X": 397531.09, "Y": 137229.35, "ADDRID": 243282.0 }, "geometry": { "type": "Point", "coordinates": [ -77.028463234424805, 38.902915678045787 ] } },
{ "type": "Feature", "properties": { "OBJECTID": 41.0, "WEB_URL": "http:\/\/www.doylecollection.com\/locations\/washington_dc_hotels\/the_dupont_hotel.aspx", "PHONE": "202-483-6000", "ZIP": "20036", "GIS_ID": "Htl_42", "ADDRESS": "1500 NEW HAMPSHIRE AVENUE NW", "NUMROOMS": 314, "NAME": "THE DUPONT HOTEL", "X": 396262.53, "Y": 138068.42, "ADDRID": 225560.0 }, "geometry": { "type": "Point", "coordinates": [ -77.043092601220522, 38.91046983297565 ] } },
{ "type": "Feature", "properties": { "OBJECTID": 42.0, "WEB_URL": "http:\/\/www.embassysuitesdcmetro.com\/downtown\/", "PHONE": "202-857-3388", "ZIP": "20037", "GIS_ID": "Htl_43", "ADDRESS": "1250 22ND STREET NW", "NUMROOMS": 318, "NAME": "EMBASSY SUITES DOWNTOWN", "X": 395711.33, "Y": 137666.78, "ADDRID": 242364.0 }, "geometry": { "type": "Point", "coordinates": [ -77.049445364700546, 38.906849205317954 ] } },
{ "type": "Feature", "properties": { "OBJECTID": 43.0, "WEB_URL": "http:\/\/www.fourseasons.com\/", "PHONE": "202-342-0444", "ZIP": "20007", "GIS_ID": "Htl_44", "ADDRESS": "2800 PENNSYLVANIA AVENUE NW", "NUMROOMS": 196, "NAME": "FOUR SEASONS HOTEL", "X": 395034.79, "Y": 137427.61, "ADDRID": 279626.0 }, "geometry": { "type": "Point", "coordinates": [ -77.057243666577051, 38.904691117496576 ] } },
{ "type": "Feature", "properties": { "OBJECTID": 44.0, "WEB_URL": "http:\/\/www.gukcc.com\/", "PHONE": "202-651-6000", "ZIP": "20002", "GIS_ID": "Htl_45", "ADDRESS": "800 FLORIDA AVENUE NE", "NUMROOMS": 93, "NAME": "GALLAUDET UNIVERSITY KELLOGG CONFERENCE", "X": 400439.78, "Y": 137546.46, "ADDRID": 288964.0 }, "geometry": { "type": "Point", "coordinates": [ -76.994929720831323, 38.905775673626309 ] } },
{ "type": "Feature", "properties": { "OBJECTID": 45.0, "WEB_URL": "http:\/\/www.monticellohotel.com\/home.htm", "PHONE": "202-337-0900", "ZIP": "20007", "GIS_ID": "Htl_46", "ADDRESS": "1075 THOMAS JEFFERSON STREET NW", "NUMROOMS": 47, "NAME": "HOTEL MONTICELLO", "X": 394802.56, "Y": 137438.57, "ADDRID": 273855.0 }, "geometry": { "type": "Point", "coordinates": [ -77.059921117232818, 38.904788506499912 ] } },
{ "type": "Feature", "properties": { "OBJECTID": 46.0, "WEB_URL": "http:\/\/www.georgetownsuites.com\/", "PHONE": "202-298-7800", "ZIP": "20007", "GIS_ID": "Htl_47", "ADDRESS": "1111 30TH STREET NW", "NUMROOMS": 0, "NAME": "GEORGETOWN SUITES", "X": 394887.13, "Y": 137391.1, "ADDRID": 294968.0 }, "geometry": { "type": "Point", "coordinates": [ -77.058945759334904, 38.904361376159983 ] } },
{ "type": "Feature", "properties": { "OBJECTID": 47.0, "WEB_URL": "http:\/\/www.capitalhotelswdc.com\/BeaconHotelWDC_com\/index.htm", "PHONE": "202-296-2100", "ZIP": "20036", "GIS_ID": "Htl_48", "ADDRESS": "1615 RHODE ISLAND AVENUE NW", "NUMROOMS": 199, "NAME": "BEACON HOTEL AND CORPORATE QUARTERS", "X": 396699.75, "Y": 137688.48, "ADDRID": 279263.0 }, "geometry": { "type": "Point", "coordinates": [ -77.038049679406413, 38.907048953443194 ] } },
{ "type": "Feature", "properties": { "OBJECTID": 48.0, "WEB_URL": "http:\/\/grandwashington.hyatt.com\/", "PHONE": "202-582-1234", "ZIP": "20001", "GIS_ID": "Htl_49", "ADDRESS": "1000 H STREET NW", "NUMROOMS": 888, "NAME": "GRAND HYATT WASHINGTON", "X": 397702.33, "Y": 136832.4, "ADDRID": 239368.0 }, "geometry": { "type": "Point", "coordinates": [ -77.026487738242238, 38.89934027531919 ] } },
{ "type": "Feature", "properties": { "OBJECTID": 49.0, "WEB_URL": "http:\/\/www.hayadams.com\/", "PHONE": "202-638-6600", "ZIP": "20006", "GIS_ID": "Htl_50", "ADDRESS": "800 16TH STREET NW", "NUMROOMS": 145, "NAME": "HAY-ADAMS HOTEL", "X": 396794.25, "Y": 136964.26, "ADDRID": 279937.0 }, "geometry": { "type": "Point", "coordinates": [ -77.036956777331099, 38.900525274797495 ] } },
{ "type": "Feature", "properties": { "OBJECTID": 50.0, "WEB_URL": "http:\/\/www.holidayinn.com\/hotels\/us\/en\/washington\/wassm\/hoteldetail", "PHONE": "202-479-4000", "ZIP": "20024", "GIS_ID": "Htl_51", "ADDRESS": "550 C STREET SW", "NUMROOMS": 529, "NAME": "HOLIDAY INN CAPITOL", "X": 398297.18, "Y": 135310.64, "ADDRID": 276671.0 }, "geometry": { "type": "Point", "coordinates": [ -77.019626484668478, 38.885633051326046 ] } },
{ "type": "Feature", "properties": { "OBJECTID": 51.0, "WEB_URL": "http:\/\/www.holidayinn.com\/hotels\/us\/en\/washington\/wasct\/hoteldetail", "PHONE": "202-483-2000", "ZIP": "20005", "GIS_ID": "Htl_52", "ADDRESS": "1501 RHODE ISLAND AVENUE NW", "NUMROOMS": 212, "NAME": "HOLIDAY INN CENTRAL", "X": 396966.84, "Y": 137806.79, "ADDRID": 242311.0 }, "geometry": { "type": "Point", "coordinates": [ -77.034970832852892, 38.908115693071316 ] } },
{ "type": "Feature", "properties": { "OBJECTID": 52.0, "WEB_URL": "http:\/\/holidayinnwashingtondc.com\/hotels\/wasgt.html", "PHONE": "202-338-4600", "ZIP": "20007", "GIS_ID": "Htl_53", "ADDRESS": "2101 WISCONSIN AVENUE NW", "NUMROOMS": 296, "NAME": "HOLIDAY INN GEORGETOWN", "X": 394068.55, "Y": 138845.79, "ADDRID": 279531.0 }, "geometry": { "type": "Point", "coordinates": [ -77.068395647025255, 38.917460572935923 ] } },
{ "type": "Feature", "properties": { "OBJECTID": 53.0, "WEB_URL": "http:\/\/www.affinia.com\/Washington-DC-Hotel.aspx?name=Liaison-Capitol-Hill", "PHONE": "202-638-1616", "ZIP": "20001", "GIS_ID": "Htl_54", "ADDRESS": "415 NEW JERSEY AVENUE NW", "NUMROOMS": 343, "NAME": "THE LIASON CAPITOL HILL", "X": 399073.19, "Y": 136393.57, "ADDRID": 237162.0 }, "geometry": { "type": "Point", "coordinates": [ -77.010683753938721, 38.895389649798851 ] } },
{ "type": "Feature", "properties": { "OBJECTID": 54.0, "WEB_URL": "http:\/\/www.hotelgeorge.com\/", "PHONE": "202-347-4200", "ZIP": "20001", "GIS_ID": "Htl_55", "ADDRESS": "15 E STREET NW", "NUMROOMS": 139, "NAME": "HOTEL GEORGE", "X": 399140.54, "Y": 136505.23, "ADDRID": 237159.0 }, "geometry": { "type": "Point", "coordinates": [ -77.009907520027198, 38.896395592261797 ] } },
{ "type": "Feature", "properties": { "OBJECTID": 55.0, "WEB_URL": "http:\/\/www.hotel-harrington.com\/", "PHONE": "202-628-8140", "ZIP": "20004", "GIS_ID": "Htl_56", "ADDRESS": "436 11TH STREET NW", "NUMROOMS": 260, "NAME": "HOTEL HARRINGTON", "X": 397631.61, "Y": 136457.62, "ADDRID": 300863.0 }, "geometry": { "type": "Point", "coordinates": [ -77.027301712329816, 38.895963933775221 ] } },
{ "type": "Feature", "properties": { "OBJECTID": 56.0, "WEB_URL": "http:\/\/www.hotellombardy.com\/index.cfm", "PHONE": "202-828-2600", "ZIP": "20006", "GIS_ID": "Htl_57", "ADDRESS": "2019 PENNSYLVANIA AVENUE NW", "NUMROOMS": 132, "NAME": "HOTEL LOMBARDY", "X": 396016.94, "Y": 137076.17, "ADDRID": 307825.0 }, "geometry": { "type": "Point", "coordinates": [ -77.045918470711584, 38.901530221431308 ] } },
{ "type": "Feature", "properties": { "OBJECTID": 57.0, "WEB_URL": "http:\/\/www.starwoodhotels.com\/whotels\/property\/overview\/index.html?propertyID=3279", "PHONE": "202-661-2400", "ZIP": "20004", "GIS_ID": "Htl_58", "ADDRESS": "515 15TH STREET NW", "NUMROOMS": 341, "NAME": "W HOTEL", "X": 397103.43, "Y": 136567.81, "ADDRID": 279820.0 }, "geometry": { "type": "Point", "coordinates": [ -77.033390792941319, 38.896954983693924 ] } },
{ "type": "Feature", "properties": { "OBJECTID": 58.0, "WEB_URL": "http:\/\/washingtonregency.hyatt.com\/", "PHONE": "202-737-1234", "ZIP": "20001", "GIS_ID": "Htl_59", "ADDRESS": "400 NEW JERSEY AVENUE NW", "NUMROOMS": 834, "NAME": "HYATT REGENCY WASHINGTON ON CAPITOL HILL", "X": 398984.74, "Y": 136391.14, "ADDRID": 279731.0 }, "geometry": { "type": "Point", "coordinates": [ -77.011703353098881, 38.89536766176964 ] } },
{ "type": "Feature", "properties": { "OBJECTID": 59.0, "WEB_URL": "http:\/\/www.marriott.com\/hotels\/travel\/wasjw-jw-marriott-washington-dc\/", "PHONE": "202-393-2000", "ZIP": "20004", "GIS_ID": "Htl_60", "ADDRESS": "1331 PENNSYLVANIA AVENUE NW", "NUMROOMS": 772, "NAME": "JW MARRIOTT", "X": 397278.55, "Y": 136502.52, "ADDRID": 279081.0 }, "geometry": { "type": "Point", "coordinates": [ -77.031371803452743, 38.896367387233077 ] } },
{ "type": "Feature", "properties": { "OBJECTID": 60.0, "WEB_URL": "http:\/\/www.thelatham.com\/", "PHONE": "202-726-5000", "ZIP": "20007", "GIS_ID": "Htl_61", "ADDRESS": "3000 M STREET NW", "NUMROOMS": 143, "NAME": "LATHAM HOTEL", "X": 394842.37, "Y": 137468.6, "ADDRID": 273857.0 }, "geometry": { "type": "Point", "coordinates": [ -77.059462374677167, 38.905059261703293 ] } },
{ "type": "Feature", "properties": { "OBJECTID": 62.0, "WEB_URL": "http:\/\/www.lenfantplazahotel.com", "PHONE": "202-484-1000", "ZIP": "20024", "GIS_ID": "Htl_63", "ADDRESS": "480 LENFANT PLAZA SW", "NUMROOMS": 370, "NAME": "L'ENFANT PLAZA HOTEL", "X": 397885.97, "Y": 135118.5, "ADDRID": 302307.0 }, "geometry": { "type": "Point", "coordinates": [ -77.024365447038747, 38.883901288159549 ] } },
{ "type": "Feature", "properties": { "OBJECTID": 63.0, "WEB_URL": "http:\/\/www.marriott.com\/hotels\/travel\/wasmc-washington-marriott-at-metro-center\/", "PHONE": "202-737-2200", "ZIP": "20005", "GIS_ID": "Htl_64", "ADDRESS": "775 12TH STREET NW", "NUMROOMS": 453, "NAME": "MARRIOTT AT METRO CENTER", "X": 397589.74, "Y": 136834.68, "ADDRID": 239130.0 }, "geometry": { "type": "Point", "coordinates": [ -77.027785693410024, 38.899360512878403 ] } },
{ "type": "Feature", "properties": { "OBJECTID": 64.0, "WEB_URL": "http:\/\/www.morrisonclark.com\/", "PHONE": "202-898-1200", "ZIP": "20001", "GIS_ID": "Htl_66", "ADDRESS": "1015 L STREET NW", "NUMROOMS": 54, "NAME": "MORRISON-CLARK INN", "X": 397682.2, "Y": 137390.94, "ADDRID": 239355.0 }, "geometry": { "type": "Point", "coordinates": [ -77.026721683381652, 38.904371749116599 ] } },
{ "type": "Feature", "properties": { "OBJECTID": 65.0, "WEB_URL": "http:\/\/www.doylecollection.com\/locations\/washington_dc_hotels\/the_normandy_hotel.aspx", "PHONE": "202-483-1350", "ZIP": "20008", "GIS_ID": "Htl_67", "ADDRESS": "2118 WYOMING AVENUE NW", "NUMROOMS": 75, "NAME": "THE NORMANDY HOTEL", "X": 395877.57, "Y": 138825.7, "ADDRID": 235029.0 }, "geometry": { "type": "Point", "coordinates": [ -77.047535691767706, 38.917289943287315 ] } },
{ "type": "Feature", "properties": { "OBJECTID": 66.0, "WEB_URL": "http:\/\/www.omnihotels.com\/FindAHotel\/WashingtonDCShoreham.aspx", "PHONE": "202-234-0700", "ZIP": "20008", "GIS_ID": "Htl_68", "ADDRESS": "2500 CALVERT STREET NW", "NUMROOMS": 836, "NAME": "OMNI SHOREHAM", "X": 395346.42, "Y": 139418.29, "ADDRID": 277165.0 }, "geometry": { "type": "Point", "coordinates": [ -77.053664391729498, 38.922625534067407 ] } },
{ "type": "Feature", "properties": { "OBJECTID": 67.0, "WEB_URL": "http:\/\/www.thecirclehotel.com\/", "PHONE": "202-872-1680", "ZIP": "20037", "GIS_ID": "Htl_69", "ADDRESS": "1 WASHINGTON CIRCLE NW", "NUMROOMS": 151, "NAME": "ONE WASHINGTON CIRCLE HOTEL", "X": 395686.8, "Y": 137280.7, "ADDRID": 242366.0 }, "geometry": { "type": "Point", "coordinates": [ -77.049725753753108, 38.903371141965088 ] } },
{ "type": "Feature", "properties": { "OBJECTID": 68.0, "WEB_URL": "http:\/\/www.parkwashington.hyatt.com\/hyatt\/hotels\/index.jsp?null\/", "PHONE": "202-789-1234", "ZIP": "20037", "GIS_ID": "Htl_70", "ADDRESS": "1201 24TH STREET NW", "NUMROOMS": 223, "NAME": "PARK HYATT WASHINGTON", "X": 395565.69, "Y": 137542.45, "ADDRID": 242765.0 }, "geometry": { "type": "Point", "coordinates": [ -77.051123688905363, 38.905728474871523 ] } },
{ "type": "Feature", "properties": { "OBJECTID": 69.0, "WEB_URL": "http:\/\/www.phoenixparkhotel.com\/", "PHONE": "202-638-6900", "ZIP": "20001", "GIS_ID": "Htl_71", "ADDRESS": "520 NORTH CAPITOL STREET NW", "NUMROOMS": 150, "NAME": "PHOENIX PARK HOTEL", "X": 399177.8, "Y": 136581.71, "ADDRID": 237156.0 }, "geometry": { "type": "Point", "coordinates": [ -77.009478092803207, 38.897084587553067 ] } },
{ "type": "Feature", "properties": { "OBJECTID": 71.0, "WEB_URL": "http:\/\/www.rougehotel.com\/", "PHONE": "202-232-8000", "ZIP": "20036", "GIS_ID": "Htl_73", "ADDRESS": "1315 16TH STREET NW", "NUMROOMS": 137, "NAME": "HOTEL ROUGE", "X": 396866.29, "Y": 137823.52, "ADDRID": 242317.0 }, "geometry": { "type": "Point", "coordinates": [ -77.036130200785436, 38.90826604993255 ] } },
{ "type": "Feature", "properties": { "OBJECTID": 72.0, "WEB_URL": "http:\/\/www.hotelpalomar-dc.com\/", "PHONE": "202-293-3100", "ZIP": "20037", "GIS_ID": "Htl_74", "ADDRESS": "2121 P STREET NW", "NUMROOMS": 301, "NAME": "HOTEL PALOMAR", "X": 395887.77, "Y": 137995.72, "ADDRID": 225942.0 }, "geometry": { "type": "Point", "coordinates": [ -77.047413105021789, 38.909813253086753 ] } },
{ "type": "Feature", "properties": { "OBJECTID": 73.0, "WEB_URL": "http:\/\/www.comfortinn.com", "PHONE": "202-832-3200", "ZIP": "20002", "GIS_ID": "Htl_75", "ADDRESS": "1600 NEW YORK AVENUE NE", "NUMROOMS": 0, "NAME": "COMFORT INN  & SUITES NEAR UNION STATION", "X": 401736.92, "Y": 138839.79, "ADDRID": 60554.0 }, "geometry": { "type": "Point", "coordinates": [ -76.979971558806227, 38.917424823003593 ] } },
{ "type": "Feature", "properties": { "OBJECTID": 74.0, "WEB_URL": "https:\/\/redroof.com\/reservations\/property-detail.aspx?pid=00254", "PHONE": "202-289-5959", "ZIP": "20001", "GIS_ID": "Htl_76", "ADDRESS": "500 H STREET NW", "NUMROOMS": 197, "NAME": "RED ROOF INN DOWNTOWN DC", "X": 398330.11, "Y": 136867.3, "ADDRID": 242981.0 }, "geometry": { "type": "Point", "coordinates": [ -77.019250721269401, 38.899656083783242 ] } },
{ "type": "Feature", "properties": { "OBJECTID": 75.0, "WEB_URL": "http:\/\/www.renaissancehotels.com\/", "PHONE": "202-347-3000", "ZIP": "20036", "GIS_ID": "Htl_77", "ADDRESS": "1127 CONNECTICUT AVENUE NW", "NUMROOMS": 660, "NAME": "RENAISSANCE MAYFLOWER HOTEL", "X": 396576.73, "Y": 137399.13, "ADDRID": 241797.0 }, "geometry": { "type": "Point", "coordinates": [ -77.039466575458974, 38.904441917343455 ] } },
{ "type": "Feature", "properties": { "OBJECTID": 76.0, "WEB_URL": "http:\/\/www.renaissancehotels.com\/", "PHONE": "202-898-9000", "ZIP": "20001", "GIS_ID": "Htl_78", "ADDRESS": "999 9TH STREET NW", "NUMROOMS": 807, "NAME": "RENAISSANCE WASHINGTON DC DOWNTOWN", "X": 397945.24, "Y": 137108.46, "ADDRID": 218802.0 }, "geometry": { "type": "Point", "coordinates": [ -77.023688276717849, 38.901827723771689 ] } },
{ "type": "Feature", "properties": { "OBJECTID": 77.0, "WEB_URL": "http:\/\/www.residenceinn.com\/", "PHONE": "202-898-1100", "ZIP": "20005", "GIS_ID": "Htl_79", "ADDRESS": "1199 VERMONT AVENUE NW", "NUMROOMS": 202, "NAME": "RESIDENCE INN - THOMAS CIRCLE", "X": 397192.18, "Y": 137395.97, "ADDRID": 278914.0 }, "geometry": { "type": "Point", "coordinates": [ -77.032371094871422, 38.90441563240045 ] } },
{ "type": "Feature", "properties": { "OBJECTID": 78.0, "WEB_URL": "http:\/\/www.theriverinn.com\/", "PHONE": "202-337-7600", "ZIP": "20037", "GIS_ID": "Htl_80", "ADDRESS": "924 25TH STREET NW", "NUMROOMS": 126, "NAME": "RIVER INN", "X": 395340.92, "Y": 137064.7, "ADDRID": 273930.0 }, "geometry": { "type": "Point", "coordinates": [ -77.053711847672474, 38.901423572448032 ] } },
{ "type": "Feature", "properties": { "OBJECTID": 79.0, "WEB_URL": "http:\/\/www.savoysuites.com\/", "PHONE": "202-337-9700", "ZIP": "20007", "GIS_ID": "Htl_81", "ADDRESS": "2505 WISCONSIN AVENUE NW", "NUMROOMS": 150, "NAME": "SAVOY SUITES HOTEL", "X": 393691.04, "Y": 139495.11, "ADDRID": 301508.0 }, "geometry": { "type": "Point", "coordinates": [ -77.072754686433569, 38.923307227672552 ] } },
{ "type": "Feature", "properties": { "OBJECTID": 80.0, "WEB_URL": "http:\/\/www.stregis.com\/", "PHONE": "202-638-2626", "ZIP": "20006", "GIS_ID": "Htl_82", "ADDRESS": "923 16TH STREET NW", "NUMROOMS": 193, "NAME": "ST REGIS", "X": 396868.95, "Y": 137139.51, "ADDRID": 242334.0 }, "geometry": { "type": "Point", "coordinates": [ -77.03609641391175, 38.902104258371857 ] } },
{ "type": "Feature", "properties": { "OBJECTID": 81.0, "WEB_URL": "http:\/\/www.stateplaza.com", "PHONE": "202-861-8200", "ZIP": "20037", "GIS_ID": "Htl_83", "ADDRESS": "2117 E STREET NW", "NUMROOMS": 230, "NAME": "STATE PLAZA HOTEL", "X": 395879.38, "Y": 136504.72, "ADDRID": 242537.0 }, "geometry": { "type": "Point", "coordinates": [ -77.047500894772284, 38.896381760643379 ] } },
{ "type": "Feature", "properties": { "OBJECTID": 82.0, "WEB_URL": "http:\/\/www.swannhouse.com\/", "PHONE": "202-265-4414", "ZIP": "20009", "GIS_ID": "Htl_84", "ADDRESS": "1808 NEW HAMPSHIRE AVENUE NW", "NUMROOMS": 12, "NAME": "SWANN HOUSE LLC", "X": 396593.36, "Y": 138522.13, "ADDRID": 241551.0 }, "geometry": { "type": "Point", "coordinates": [ -77.039280420626014, 38.914558350205759 ] } },
{ "type": "Feature", "properties": { "OBJECTID": 84.0, "WEB_URL": "http:\/\/www.washingtoncourthotel.com\/", "PHONE": "202-628-2100", "ZIP": "20001", "GIS_ID": "Htl_86", "ADDRESS": "525 NEW JERSEY AVENUE NW", "NUMROOMS": 264, "NAME": "WASHINGTON COURT HOTEL", "X": 399037.23, "Y": 136551.16, "ADDRID": 279827.0 }, "geometry": { "type": "Point", "coordinates": [ -77.011098501815752, 38.896809239339845 ] } },
{ "type": "Feature", "properties": { "OBJECTID": 85.0, "WEB_URL": "http:\/\/www.marriott.com\/", "PHONE": "202-872-1500", "ZIP": "20037", "GIS_ID": "Htl_87", "ADDRESS": "1221 22ND STREET NW", "NUMROOMS": 417, "NAME": "WASHINGTON MARRIOTT", "X": 395794.15, "Y": 137580.78, "ADDRID": 300163.0 }, "geometry": { "type": "Point", "coordinates": [ -77.048489981555221, 38.906074887700036 ] } },
{ "type": "Feature", "properties": { "OBJECTID": 86.0, "WEB_URL": "http:\/\/www.washingtonplazahotel.com", "PHONE": "202-842-1300", "ZIP": "20005", "GIS_ID": "Htl_88", "ADDRESS": "10 THOMAS CIRCLE NW", "NUMROOMS": 340, "NAME": "WASHINGTON PLAZA", "X": 397313.44, "Y": 137599.78, "ADDRID": 298252.0 }, "geometry": { "type": "Point", "coordinates": [ -77.030973896999953, 38.906252003057631 ] } },
{ "type": "Feature", "properties": { "OBJECTID": 87.0, "WEB_URL": "http:\/\/www.starwoodhotels.com\/westin\/property\/overview\/index.html?propertyID=245", "PHONE": "202-293-2100", "ZIP": "20008", "GIS_ID": "Htl_89", "ADDRESS": "2100 MASSACHUSETTS AVENUE NW", "NUMROOMS": 206, "NAME": "THE FAIRFAX AT EMBASSY ROW", "X": 395921.69, "Y": 138070.77, "ADDRID": 225940.0 }, "geometry": { "type": "Point", "coordinates": [ -77.047022460690542, 38.91048948710764 ] } },
{ "type": "Feature", "properties": { "OBJECTID": 88.0, "WEB_URL": "http:\/\/www.westin.com\/", "PHONE": "202-429-0100", "ZIP": "20037", "GIS_ID": "Htl_90", "ADDRESS": "2350 M STREET NW", "NUMROOMS": 263, "NAME": "WESTIN GRAND", "X": 395568.16, "Y": 137458.44, "ADDRID": 242338.0 }, "geometry": { "type": "Point", "coordinates": [ -77.051094669877742, 38.904971695981416 ] } },
{ "type": "Feature", "properties": { "OBJECTID": 89.0, "WEB_URL": "http:\/\/washington.intercontinental.com\/", "PHONE": "202-628-9100", "ZIP": "20004", "GIS_ID": "Htl_91", "ADDRESS": "1401 PENNSYLVANIA AVENUE NW", "NUMROOMS": 375, "NAME": "THE WILLARD INTER-CONTINENTAL", "X": 397194.15, "Y": 136516.41, "ADDRID": 279129.0 }, "geometry": { "type": "Point", "coordinates": [ -77.032344790054353, 38.896492248069102 ] } },
{ "type": "Feature", "properties": { "OBJECTID": 90.0, "WEB_URL": "http:\/\/www.windsorparkhotel.com\/", "PHONE": "202-483-7700", "ZIP": "20008", "GIS_ID": "Htl_92", "ADDRESS": "2116 KALORAMA ROAD NW", "NUMROOMS": 43, "NAME": "WINDSOR PARK HOTEL", "X": 395789.75, "Y": 138921.37, "ADDRID": 234981.0 }, "geometry": { "type": "Point", "coordinates": [ -77.048548929650408, 38.91815135370824 ] } },
{ "type": "Feature", "properties": { "OBJECTID": 91.0, "WEB_URL": "http:\/\/www.dcinns.com\/woodley.html", "PHONE": "202-667-0218", "ZIP": "20008", "GIS_ID": "Htl_93", "ADDRESS": "2647 WOODLEY ROAD NW", "NUMROOMS": 17, "NAME": "WOODLEY PARK GUEST HOUSE", "X": 395340.51, "Y": 139778.29, "ADDRID": 219986.0 }, "geometry": { "type": "Point", "coordinates": [ -77.053734988623944, 38.925868496861462 ] } },
{ "type": "Feature", "properties": { "OBJECTID": 92.0, "WEB_URL": "http:\/\/www.marriott.com\/hotels\/travel\/wasrw-renaissance-washington-dc-dupont-circle-hotel\/", "PHONE": "202-775-0800", "ZIP": "20037", "GIS_ID": "Htl_94", "ADDRESS": "1143 NEW HAMPSHIRE AVENUE NW", "NUMROOMS": 352, "NAME": "RENAISSANCE DUPONT CIRCLE", "X": 395874.56, "Y": 137431.64, "ADDRID": 243210.0 }, "geometry": { "type": "Point", "coordinates": [ -77.047562024893296, 38.904731763690393 ] } },
{ "type": "Feature", "properties": { "OBJECTID": 93.0, "WEB_URL": "http:\/\/www.starwoodhotels.com\/westin\/property\/overview\/index.html?propertyID=1761", "PHONE": "202-429-1700", "ZIP": "20005", "GIS_ID": "Htl_95", "ADDRESS": "1400 M STREET NW", "NUMROOMS": 406, "NAME": "WESTIN CITY CENTER", "X": 397099.84, "Y": 137495.93, "ADDRID": 240254.0 }, "geometry": { "type": "Point", "coordinates": [ -77.033436096122898, 38.905315807244754 ] } },
{ "type": "Feature", "properties": { "OBJECTID": 94.0, "WEB_URL": "http:\/\/www.adamsinn.com\/", "PHONE": "202-745-3600", "ZIP": "20009", "GIS_ID": "Htl_96", "ADDRESS": "1744 LANIER PLACE NW", "NUMROOMS": 26, "NAME": "ADAMS INN", "X": 396399.78, "Y": 139636.18, "ADDRID": 235897.0 }, "geometry": { "type": "Point", "coordinates": [ -77.04151834572879, 38.924593303459226 ] } },
{ "type": "Feature", "properties": { "OBJECTID": 0.0, "WEB_URL": "http:\/\/www.thequincy.com\/", "PHONE": "202-22-432-", "ZIP": "20036", "GIS_ID": "Htl_97", "ADDRESS": "1823 L STREET NW", "NUMROOMS": 100, "NAME": "THE QUINCY HOTEL", "X": 396295.711, "Y": 137347.68, "ADDRID": 241297.0 }, "geometry": { "type": "Point", "coordinates": [ -77.042706146343164, 38.903977298331768 ] } },
{ "type": "Feature", "properties": { "OBJECTID": 0.0, "WEB_URL": "http:\/\/www.kaloramaguesthouse.com\/", "PHONE": "202-588-8188", "ZIP": "20008", "GIS_ID": null, "ADDRESS": "2700 CATHEDRAL AVENUE NW", "NUMROOMS": 19, "NAME": "THE KALORAMA GUEST HOUSE", "X": 395185.03, "Y": 140032.2, "ADDRID": 284453.0 }, "geometry": { "type": "Point", "coordinates": [ -77.055529817359115, 38.928154959223221 ] } },
{ "type": "Feature", "properties": { "OBJECTID": 96.0, "WEB_URL": "http:\/\/topazhotel.com\/", "PHONE": "202-393-3000", "ZIP": "20036", "GIS_ID": "Htl_98", "ADDRESS": "1733 N STREET NW", "NUMROOMS": 99, "NAME": "TOPAZ HOTEL", "X": 396555.85, "Y": 137729.62, "ADDRID": 241760.0 }, "geometry": { "type": "Point", "coordinates": [ -77.039708956460288, 38.907419004705524 ] } },
{ "type": "Feature", "properties": { "OBJECTID": 97.0, "WEB_URL": "http:\/\/www.capitolhillsuites.com\/", "PHONE": "202-543-6000", "ZIP": "20003", "GIS_ID": "Htl_99", "ADDRESS": "200 C STREET SE", "NUMROOMS": 152, "NAME": "CAPITOL HILL SUITES", "X": 399733.27, "Y": 135376.88, "ADDRID": 278017.0 }, "geometry": { "type": "Point", "coordinates": [ -77.003074321488057, 38.886231374983346 ] } },
{ "type": "Feature", "properties": { "OBJECTID": 98.0, "WEB_URL": "http:\/\/www.carlylesuites.com\/", "PHONE": "202-234-3200", "ZIP": "20009", "GIS_ID": "Htl_100", "ADDRESS": "1731 NEW HAMPSHIRE AVENUE NW", "NUMROOMS": 170, "NAME": "CARLYLE SUITES HOTEL", "X": 396576.77, "Y": 138386.85, "ADDRID": 241652.0 }, "geometry": { "type": "Point", "coordinates": [ -77.039471037923107, 38.913339638204924 ] } },
{ "type": "Feature", "properties": { "OBJECTID": 99.0, "WEB_URL": "http:\/\/www.channelinn.com\/", "PHONE": "202-554-2400", "ZIP": "20024", "GIS_ID": "Htl_101", "ADDRESS": "650 WATER STREET SW", "NUMROOMS": 100, "NAME": "CHANNEL INN HOTEL", "X": 398019.21, "Y": 134422.51, "ADDRID": 276710.0 }, "geometry": { "type": "Point", "coordinates": [ -77.022827771320237, 38.877631849973326 ] } },
{ "type": "Feature", "properties": { "OBJECTID": 100.0, "WEB_URL": "http:\/\/www.hotelmadera.com", "PHONE": "202-296-7600", "ZIP": "20036", "GIS_ID": "Htl_102", "ADDRESS": "1310 NEW HAMPSHIRE AVENUE NW", "NUMROOMS": 82, "NAME": "HOTEL MADERA", "X": 396031.56, "Y": 137753.59, "ADDRID": 243325.0 }, "geometry": { "type": "Point", "coordinates": [ -77.045753839110802, 38.907632723950634 ] } },
{ "type": "Feature", "properties": { "OBJECTID": 0.0, "WEB_URL": "http:\/\/www.marriott.com\/hotels\/travel\/wasny-courtyard-washington-capitol-hill-navy-yard\/", "PHONE": "202-479-0027", "ZIP": "20003", "GIS_ID": "Htl_155", "ADDRESS": "140 L STREET SE", "NUMROOMS": 204, "NAME": "COUTRYARD BY MARRIOTT CAPITOL HILL NAVY YARD", "X": 399656.31, "Y": 134430.27, "ADDRID": 299775.0 }, "geometry": { "type": "Point", "coordinates": [ -77.003960886600623, 38.8777039189604 ] } },
{ "type": "Feature", "properties": { "OBJECTID": 0.0, "WEB_URL": "http:\/\/www.marriott.com\/hotels\/travel\/wasna-fairfield-inn-and-suites-washington-dc-new-york-avenue\/", "PHONE": "202-266-3000", "ZIP": "20002", "GIS_ID": "Htl_156", "ADDRESS": "2305 NEW YORK AVENUE NE", "NUMROOMS": 126, "NAME": "FAIRFIELD INN AND SUITES NEW YORK AVENUE", "X": 402472.6, "Y": 138774.41, "ADDRID": 307042.0 }, "geometry": { "type": "Point", "coordinates": [ -76.971488661591764, 38.916834096465536 ] } },
{ "type": "Feature", "properties": { "OBJECTID": 0.0, "WEB_URL": "http:\/\/www.eldonsuites.com\/", "PHONE": "202-540-5000", "ZIP": "20001", "GIS_ID": "Htl_157", "ADDRESS": "933 L STREET NW", "NUMROOMS": 50, "NAME": "THE ELDON", "X": 397797.04, "Y": 137397.0, "ADDRID": 239808.0 }, "geometry": { "type": "Point", "coordinates": [ -77.025397724064689, 38.904426635042825 ] } },
{ "type": "Feature", "properties": { "OBJECTID": 0.0, "WEB_URL": "http:\/\/www.marriott.com\/hotels\/travel\/wasus-courtyard-washington-dc-us-capitol\/", "PHONE": "202-898-4000", "ZIP": "20002", "GIS_ID": "Htl_154", "ADDRESS": "1325 2ND STREET NE", "NUMROOMS": 218, "NAME": "COURTYARD BY MARRIOTT US CAPITOL", "X": 399725.6, "Y": 137770.75, "ADDRID": 304846.0 }, "geometry": { "type": "Point", "coordinates": [ -77.003163681876941, 38.907796223062107 ] } },
{ "type": "Feature", "properties": { "OBJECTID": 101.0, "WEB_URL": "http:\/\/www.daysinn.com\/", "PHONE": "202-244-5600", "ZIP": "20008", "GIS_ID": "Htl_103", "ADDRESS": "4400 CONNECTICUT AVENUE NW", "NUMROOMS": 155, "NAME": "DAYS INN CONNECTICUT AVE", "X": 394312.78, "Y": 142119.11, "ADDRID": 222132.0 }, "geometry": { "type": "Point", "coordinates": [ -77.06560655397368, 38.946949244616313 ] } },
{ "type": "Feature", "properties": { "OBJECTID": 102.0, "WEB_URL": "http:\/\/www.doubletree.com\/", "PHONE": "202-785-2000", "ZIP": "20037", "GIS_ID": "Htl_104", "ADDRESS": "801 NEW HAMPSHIRE AVENUE NW", "NUMROOMS": 105, "NAME": "DOUBLETREE GUEST SUITES", "X": 395467.93, "Y": 136889.66, "ADDRID": 277506.0 }, "geometry": { "type": "Point", "coordinates": [ -77.052246468009756, 38.899847413834408 ] } },
{ "type": "Feature", "properties": { "OBJECTID": 103.0, "WEB_URL": "http:\/\/www.doubletree.com\/", "PHONE": "202-232-7000", "ZIP": "20005", "GIS_ID": "Htl_105", "ADDRESS": "1515 RHODE ISLAND AVENUE NW", "NUMROOMS": 220, "NAME": "DOUBLETREE HOTEL WASHINGTON", "X": 396920.3, "Y": 137786.81, "ADDRID": 242312.0 }, "geometry": { "type": "Point", "coordinates": [ -77.03550732635378, 38.907935544505321 ] } },
{ "type": "Feature", "properties": { "OBJECTID": 105.0, "WEB_URL": null, "PHONE": "202-362-9300", "ZIP": "20015", "GIS_ID": "Htl_107", "ADDRESS": "4300 MILITARY ROAD NW", "NUMROOMS": 198, "NAME": "EMBASSY SUITES CHEVY CHASE PAVILLION", "X": 392643.24, "Y": 143654.27, "ADDRID": 301908.0 }, "geometry": { "type": "Point", "coordinates": [ -77.084882467171852, 38.960765975596054 ] } },
{ "type": "Feature", "properties": { "OBJECTID": 106.0, "WEB_URL": "http:\/\/www.gwuinn.com\/", "PHONE": "202-298-7499", "ZIP": "20037", "GIS_ID": "Htl_108", "ADDRESS": "824 NEW HAMPSHIRE AVENUE NW", "NUMROOMS": 95, "NAME": "GEORGE WASHINGTON UNIVERSITY INN", "X": 395430.48, "Y": 136931.62, "ADDRID": 274009.0 }, "geometry": { "type": "Point", "coordinates": [ -77.0526784769703, 38.900225210611964 ] } },
{ "type": "Feature", "properties": { "OBJECTID": 107.0, "WEB_URL": "http:\/\/www.georgetowninn.com\/", "PHONE": "202-333-8900", "ZIP": "20007", "GIS_ID": "Htl_109", "ADDRESS": "1310 WISCONSIN AVENUE NW", "NUMROOMS": 96, "NAME": "GEORGETOWN INN", "X": 394486.89, "Y": 137707.09, "ADDRID": 279035.0 }, "geometry": { "type": "Point", "coordinates": [ -77.063562620807886, 38.907205504471825 ] } },
{ "type": "Feature", "properties": { "OBJECTID": 108.0, "WEB_URL": "http:\/\/www.acc-guhotelandconferencecenter.com\/", "PHONE": "202-687-3243", "ZIP": "20057", "GIS_ID": "Htl_110", "ADDRESS": "3800 RESERVOIR ROAD NW", "NUMROOMS": 146, "NAME": "GEORGETOWN UNIVERSITY HOTEL & CONFERENCE CENTER", "X": 393470.87, "Y": 138262.65, "ADDRID": 291547.0 }, "geometry": { "type": "Point", "coordinates": [ -77.075281956731644, 38.912203217559046 ] } },
{ "type": "Feature", "properties": { "OBJECTID": 109.0, "WEB_URL": "http:\/\/www.henleypark.com\/", "PHONE": "202-638-5200", "ZIP": "20001", "GIS_ID": "Htl_111", "ADDRESS": "926 MASSACHUSETTS AVENUE NW", "NUMROOMS": 96, "NAME": "HENLEY PARK HOTEL", "X": 397770.07, "Y": 137254.95, "ADDRID": 242922.0 }, "geometry": { "type": "Point", "coordinates": [ -77.025708197512671, 38.903146930637227 ] } },
{ "type": "Feature", "properties": { "OBJECTID": 110.0, "WEB_URL": "http:\/\/www.hilton.com\/", "PHONE": "202-265-1600", "ZIP": "20036", "GIS_ID": "Htl_112", "ADDRESS": "2015 MASSACHUSETTS AVENUE NW", "NUMROOMS": 193, "NAME": "HILTON WASHINGTON EMBASSY ROW", "X": 396037.26, "Y": 138096.8, "ADDRID": 225934.0 }, "geometry": { "type": "Point", "coordinates": [ -77.045690101882798, 38.910724502866039 ] } },
{ "type": "Feature", "properties": { "OBJECTID": 111.0, "WEB_URL": "http:\/\/www.hiltongardeninn.com\/", "PHONE": "202-783-7800", "ZIP": "20005", "GIS_ID": "Htl_113", "ADDRESS": "815 14TH STREET NW", "NUMROOMS": 300, "NAME": "HILTON GARDEN INN - DOWNTOWN", "X": 397247.31, "Y": 136979.78, "ADDRID": 279961.0 }, "geometry": { "type": "Point", "coordinates": [ -77.031733838333068, 38.900666620006099 ] } },
{ "type": "Feature", "properties": { "OBJECTID": 112.0, "WEB_URL": "http:\/\/www.lovethebeer.com\/brickskeller-inn.html", "PHONE": "202-293-1885", "ZIP": "20037", "GIS_ID": "Htl_114", "ADDRESS": "1523 22ND STREET NW", "NUMROOMS": 43, "NAME": "BRICKSKELLER INN", "X": 395795.46, "Y": 138049.28, "ADDRID": 225698.0 }, "geometry": { "type": "Point", "coordinates": [ -77.048477746701693, 38.910295303081547 ] } },
{ "type": "Feature", "properties": { "OBJECTID": 115.0, "WEB_URL": null, "PHONE": "202-529-3900", "ZIP": "20002", "GIS_ID": "Htl_117", "ADDRESS": "1615 NEW YORK AVENUE NE", "NUMROOMS": 0, "NAME": "BUDGET MOTOR INN", "X": 401693.61, "Y": 138754.31, "ADDRID": 286348.0 }, "geometry": { "type": "Point", "coordinates": [ -76.98047117767544, 38.916654875454633 ] } },
{ "type": "Feature", "properties": { "OBJECTID": 116.0, "WEB_URL": null, "PHONE": "202-547-1050", "ZIP": "20002", "GIS_ID": "Htl_118", "ADDRESS": "101 5TH STREET NE", "NUMROOMS": 10, "NAME": "BULL MOOSE BED AND BREAKFAST", "X": 400064.16, "Y": 135914.89, "ADDRID": 75958.0 }, "geometry": { "type": "Point", "coordinates": [ -76.999260443645539, 38.891078009790284 ] } },
{ "type": "Feature", "properties": { "OBJECTID": 118.0, "WEB_URL": "http:\/\/www.courtyard.com\/", "PHONE": "202-293-8000", "ZIP": "20009", "GIS_ID": "Htl_120", "ADDRESS": "1900 CONNECTICUT AVENUE NW", "NUMROOMS": 147, "NAME": "COURTYARD NORTHWEST", "X": 395935.01, "Y": 138685.68, "ADDRID": 235054.0 }, "geometry": { "type": "Point", "coordinates": [ -77.046872522913432, 38.91602886448154 ] } },
{ "type": "Feature", "properties": { "OBJECTID": 119.0, "WEB_URL": "http:\/\/www.courtyard.com\/", "PHONE": "202-293-8000", "ZIP": "20036", "GIS_ID": "Htl_121", "ADDRESS": "1600 RHODE ISLAND AVENUE NW", "NUMROOMS": 156, "NAME": "COURTYARD EMBASSY ROW", "X": 396793.26, "Y": 137645.95, "ADDRID": 242882.0 }, "geometry": { "type": "Point", "coordinates": [ -77.036971373062784, 38.906666174594164 ] } },
{ "type": "Feature", "properties": { "OBJECTID": 120.0, "WEB_URL": "http:\/\/www.motel6.com\/", "PHONE": "202-544-2000", "ZIP": "20002", "GIS_ID": "Htl_122", "ADDRESS": "1345 4TH STREET NE", "NUMROOMS": 0, "NAME": "MOTEL 6", "X": 400182.31, "Y": 138034.17, "ADDRID": 66534.0 }, "geometry": { "type": "Point", "coordinates": [ -76.997897995508666, 38.910169224926413 ] } },
{ "type": "Feature", "properties": { "OBJECTID": 121.0, "WEB_URL": "http:\/\/www.embassy-inn.com\/", "PHONE": "202-234-7800", "ZIP": "20009", "GIS_ID": "Htl_123", "ADDRESS": "1627 16TH STREET NW", "NUMROOMS": 38, "NAME": "THE EMBASSY INN", "X": 396873.42, "Y": 138263.7, "ADDRID": 242291.0 }, "geometry": { "type": "Point", "coordinates": [ -77.036049999404909, 38.912231366900961 ] } },
{ "type": "Feature", "properties": { "OBJECTID": 122.0, "WEB_URL": "http:\/\/www.fairmont.com\/washington\/", "PHONE": "202-429-2400", "ZIP": "20037", "GIS_ID": "Htl_124", "ADDRESS": "2401 M STREET NW", "NUMROOMS": 415, "NAME": "THE FAIRMONT", "X": 395509.26, "Y": 137522.61, "ADDRID": 273950.0 }, "geometry": { "type": "Point", "coordinates": [ -77.0517741472393, 38.905549462755431 ] } },
{ "type": "Feature", "properties": { "OBJECTID": 123.0, "WEB_URL": "http:\/\/www.galleryinnhotel.com\/", "PHONE": "202-234-8788", "ZIP": "20009", "GIS_ID": "Htl_125", "ADDRESS": "1850 FLORIDA AVENUE NW", "NUMROOMS": 0, "NAME": "GALLERY INN", "X": 396261.68, "Y": 138669.9, "ADDRID": 279442.0 }, "geometry": { "type": "Point", "coordinates": [ -77.043105676269136, 38.915888163270644 ] } },
{ "type": "Feature", "properties": { "OBJECTID": 124.0, "WEB_URL": "http:\/\/hamptoninn.hilton.com\/", "PHONE": "202-842-2500", "ZIP": "20001", "GIS_ID": "Htl_126", "ADDRESS": "901 6TH STREET NW", "NUMROOMS": 228, "NAME": "HAMPTON INN CONVENTION CENTER", "X": 398295.53, "Y": 137103.05, "ADDRID": 300640.0 }, "geometry": { "type": "Point", "coordinates": [ -77.019649949246983, 38.901779737597977 ] } },
{ "type": "Feature", "properties": { "OBJECTID": 125.0, "WEB_URL": "http:\/\/www.hotelhelix.com\/", "PHONE": "202-462-7777", "ZIP": "20005", "GIS_ID": "Htl_127", "ADDRESS": "1430 RHODE ISLAND AVENUE NW", "NUMROOMS": 178, "NAME": "HOTEL HELIX", "X": 397137.34, "Y": 137802.82, "ADDRID": 279165.0 }, "geometry": { "type": "Point", "coordinates": [ -77.033005035908005, 38.908080501787595 ] } },
{ "type": "Feature", "properties": { "OBJECTID": 126.0, "WEB_URL": "http:\/\/www.mandarinoriental.com\/washington\/", "PHONE": "202-554-8588", "ZIP": "20024", "GIS_ID": "Htl_128", "ADDRESS": "1330 MARYLAND AVENUE SW", "NUMROOMS": 400, "NAME": "MANDARIN ORIENTAL", "X": 397358.14, "Y": 135085.41, "ADDRID": 297583.0 }, "geometry": { "type": "Point", "coordinates": [ -77.030448872595557, 38.883601773193696 ] } }
]
}
